DCA License Number,License Type,License Expiration Date,License Status,License Creation Date,Industry,Business Name,Business Name 2,Address Building,Address Street Name,Secondary Address Street Name,Address City,Address State,Address ZIP,Contact Phone Number,Address Borough,Borough Code,Community Board,Council District,BIN,BBL,NTA,Census Tract,Detail,Longitude,Latitude,Location
2066708-1-DCA,Business,12/31/2021,Active,02/23/2018,Tobacco Retail Dealer,BEER CAVE & MART CORP,,601,E FORDHAM RD,,BRONX,NY,10458,7185635950,Bronx,2,206,15,2016261,2032730257,BX06,397,,-73.88501274569022,40.85839261183536,"(40.85839261183536, -73.88501274569022)"
2040247-1-DCA,Business,12/31/2021,Active,07/13/2016,Tobacco Retail Dealer,madhuben patel,,N/E/C,6 AVENUE,WEST   46 STREET,NEW YORK,NY,10036,2123025920,Manhattan,1,105,04,,,,,,-73.98225540711462,40.75738784087671,"(40.75738784087671, -73.98225540711462)"
2095762-1-DCA,Business,12/31/2021,Active,05/28/2020,Tobacco Retail Dealer,DARDANIA MINI MART CORP,,460,BRADLEY AVE,,STATEN ISLAND,NY,10314,6463995622,Staten Island,5,502,49,5021261,5008240068,,,,-74.13101638291955,40.59964928525426,"(40.59964928525426, -74.13101638291955)"
1471302-DCA,Business,12/31/2022,Active,08/13/2013,Tobacco Retail Dealer,ME QUICK STOP GROCERY & CANDY CORP,,4314,BROADWAY,,NEW YORK,NY,10033,646-243-0757,Manhattan,1,112,10,1063930,1021640042,MN35,271,,-73.9348524884686,40.85188265950567,"(40.85188265950567, -73.9348524884686)"
1448067-DCA,Business,12/31/2021,Active,10/17/2012,Tobacco Retail Dealer,SUNSHINE EXPRESS DELI INC.,,986A,GATES AVE,,BROOKLYN,NY,11221,347-722-4832,Brooklyn,3,303,41,3332200,3016380044,BK35,385,,-73.92459769250969,40.68919570170771,"(40.68919570170771, -73.92459769250969)"
1422615-DCA,Business,12/31/2021,Active,03/22/2012,Tobacco Retail Dealer,9-11 DELI CORP.,WHOLESOME FOOD,9,W 110TH ST,,NEW YORK,NY,10026,917-349-1150,Manhattan,1,110,09,1051397,1015940029,MN11,186,,-73.9504181922386,40.79739131283645,"(40.79739131283645, -73.9504181922386)"
2032244-1-DCA,Business,12/31/2021,Active,01/07/2016,Tobacco Retail Dealer,MICHAEL'S DELI CORP,XPRESS MART,745,WHITE PLAINS RD,,BRONX,NY,10473,347-270-1929,Bronx,2,209,18,2092714,2036000004,BX09,16,,-73.85814498119129,40.821457302132906,"(40.821457302132906, -73.85814498119129)"
1440563-DCA,Business,12/31/2021,Active,08/10/2012,Tobacco Retail Dealer,VALERY GROCERY CORP.,,19102,JAMAICA AVE,,HOLLIS,NY,11423,718-468-8179,Queens,4,412,27,4231488,4108200031,QN07,500,,-73.76856620701805,40.712548840082704,"(40.712548840082704, -73.76856620701805)"
1377819-DCA,Business,12/31/2021,Active,11/29/2010,Tobacco Retail Dealer,88 DELI GROCERY INC.,,8801,JAMAICA AVE,,WOODHAVEN,NY,11421,718-849-5906,Queens,4,409,32,4181888,4088630100,QN53,14,,-73.85641038341824,40.692682558641174,"(40.692682558641174, -73.85641038341824)"
2097997-2-DCA,Business,12/31/2022,Active,03/10/2021,Tobacco Retail Dealer,S & E DELI LLC,,211,HARRISON AVE,,BROOKLYN,NY,11206,7189632065,Brooklyn,3,301,33,3061462,3022720001,,,,-73.94723741430855,40.70023953411017,"(40.70023953411017, -73.94723741430855)"
2066860-1-DCA,Business,12/31/2021,Active,02/23/2018,Tobacco Retail Dealer,LOS MOROCHOS GROCERY STORE INC,,1973,WALTON AVE,,BRONX,NY,10453,7187165784,Bronx,2,205,14,2008266,2028540024,BX41,241,,-73.9081185651524,40.85165586715717,"(40.85165586715717, -73.9081185651524)"
1316039-DCA,Business,12/31/2021,Active,04/28/2009,Tobacco Retail Dealer,"39 LOTT GROCERY, INC.",,39,LOTT AVE,,BROOKLYN,NY,11212,718-922-9757,Brooklyn,3,316,42,3082435,3036090001,BK81,896,,-73.91256355022074,40.65723249596184,"(40.65723249596184, -73.91256355022074)"
2066719-1-DCA,Business,12/31/2021,Active,02/23/2018,Tobacco Retail Dealer,METRO TOBACCO NY CORP,,1281,ARTHUR KILL RD,,STATEN ISLAND,NY,10312,646-229-9004,Staten Island,5,503,51,5077604,5059000120,SI05,228,,-74.1829037861149,40.565490648966865,"(40.565490648966865, -74.1829037861149)"
2042684-1-DCA,Business,12/31/2021,Active,08/22/2016,Tobacco Retail Dealer,360 DELI CORP,360 DELI,360,W 110TH ST,,NEW YORK,NY,10025,9292134061,Manhattan,1,107,07,1055741,1018450003,MN09,193,,-73.96007719887636,40.801339236353144,"(40.801339236353144, -73.96007719887636)"
1364633-DCA,Business,12/31/2021,Active,05/09/2012,Tobacco Retail Dealer,"HOLLIS NEWS & SNACKS, INC.",124 SUPPLY,20517A,HILLSIDE AVE,,HOLLIS,NY,11423,718-465-1600,Queens,4,408,23,4224410,4105330001,QN06,478,,-73.76009957242317,40.72075209557875,"(40.72075209557875, -73.76009957242317)"
1075571-DCA,Business,12/31/2021,Active,03/29/2001,Tobacco Retail Dealer,SHOP & SMILE GROCERIES INC.,,51,NEPTUNE AVE,,BROOKLYN,NY,11235,718-648-7080,Brooklyn,3,315,48,3246953,3087650095,BK17,608,,-73.95599572240455,40.58275542285715,"(40.58275542285715, -73.95599572240455)"
1041971-DCA,Business,12/31/2021,Active,12/31/2003,Tobacco Retail Dealer,"DITMAS FRUITS & DAIRY, INC.",,124,DITMAS AVE,,BROOKLYN,NY,11218,718-853-9342,Brooklyn,3,312,39,3126999,3053950008,BK88,478,,-73.9776543756928,40.63558250910922,"(40.63558250910922, -73.9776543756928)"
2034772-1-DCA,Business,12/31/2021,Active,03/22/2016,Tobacco Retail Dealer,AIRPORT ENTERPRISES INC,BP,13344,150TH ST,,JAMAICA,NY,11436,718-659-0014,Queens,4,412,28,4263080,4121160001,QN76,788,,-73.78928691351507,40.66764289810592,"(40.66764289810592, -73.78928691351507)"
2066341-1-DCA,Business,12/31/2021,Active,02/20/2018,Tobacco Retail Dealer,CURLY DELI & GROCERY INC,,17302,JAMAICA AVE,,JAMAICA,NY,11432,718-729-4789,Queens,4,412,27,4217534,4102140001,QN61,444,,-73.78655190156964,40.70789277996657,"(40.70789277996657, -73.78655190156964)"
2046253-1-DCA,Business,12/31/2021,Active,12/07/2016,Tobacco Retail Dealer,J & Y SPRINGFIELD DELI AND MINI MARKET CORP,,22314,S CONDUIT AVE,,SPRINGFIELD GARDENS,NY,11413,7184819289,Queens,4,413,31,4287379,4135030005,QN03,680,,-73.75448057197329,40.66547137204526,"(40.66547137204526, -73.75448057197329)"
2006785-1477-DCA,Business,12/31/2021,Active,04/24/2014,Tobacco Retail Dealer,MIDTOWN QUICK MART CORP,,158,E 45TH ST,,NEW YORK,NY,10017,9145741385,Manhattan,1,106,04,1036180,1012990040,MN19,92,,-73.97389737115385,40.75304131772921,"(40.75304131772921, -73.97389737115385)"
2006015-1365-DCA,Business,12/31/2021,Active,04/09/2014,Tobacco Retail Dealer,"MORONTA, JOSE R. DURAN",,501,W 169TH ST,,NEW YORK,NY,10032,212-568-4016,Manhattan,1,112,10,1063031,1021260046,MN36,253,,-73.93667782116982,40.84058097396129,"(40.84058097396129, -73.93667782116982)"
2003115-797-DCA,Business,12/31/2021,Active,01/31/2014,Tobacco Retail Dealer,NEALTICAN DELI GROCERY CORP.,,1225,FLUSHING AVE,,BROOKLYN,NY,11237,718-909-1181,Brooklyn,3,301,34,3070658,3030020012,BK77,453,,-73.92373986983549,40.7077854493441,"(40.7077854493441, -73.92373986983549)"
2079245-1-DCA,Business,12/31/2021,Active,10/18/2018,Tobacco Retail Dealer,RIVINGTON FOODS CORP,RIVINGTON FOODS MARKET PLACE,210,RIVINGTON ST,,NEW YORK,NY,10002,646-478-7535,Manhattan,1,103,02,1004105,1003440069,MN28,2201,,-73.9827708330719,40.71838773242428,"(40.71838773242428, -73.9827708330719)"
2004063-1051-DCA,Business,12/31/2021,Active,02/27/2014,Tobacco Retail Dealer,MYKONOS FOOD CORP,,216,E 175TH ST,,BRONX,NY,10457,718-583-9652,Bronx,2,205,15,2092044,2027970031,BX41,22901,,-73.90689283131948,40.84674734997013,"(40.84674734997013, -73.90689283131948)"
1350615-DCA,Business,12/31/2021,Active,04/16/2010,Tobacco Retail Dealer,NUNEZ COUSINS GROCERY CORP.,,1520,WATSON AVE,,BRONX,NY,10472,718-378-1646,Bronx,2,209,18,2023474,2037140030,BX55,5001,,-73.87843827400462,40.82603945975222,"(40.82603945975222, -73.87843827400462)"
1351705-DCA,Business,12/31/2021,Active,04/26/2010,Tobacco Retail Dealer,"PENA, JUAN B",180 PENA GROCERY,180,W 167TH ST,,BRONX,NY,10452,347-495-5160,Bronx,2,204,16,2003498,2025270168,BX26,193,,-73.92776835124245,40.83796826402377,"(40.83796826402377, -73.92776835124245)"
2008143-1757-DCA,Business,12/31/2021,Active,05/15/2014,Tobacco Retail Dealer,NEW PARK SLOPE GROCERY AND CONVENIENT STORE INC,,597,4TH AVE,,BROOKLYN,NY,11215,347-987-3403,Brooklyn,3,307,38,3008934,3006280072,BK37,143,,-73.99328470533011,40.665000321341566,"(40.665000321341566, -73.99328470533011)"
2015580-1-DCA,Business,12/31/2021,Active,11/17/2014,Tobacco Retail Dealer,MONTERO'S DELI MINI MARKET CORP,,4118,JUNCTION BLVD,,CORONA,NY,11368,917-832-6330,Queens,4,404,21,4039899,4015980012,QN29,465,,-73.86846263532341,40.74711461930981,"(40.74711461930981, -73.86846263532341)"
2034110-1-DCA,Business,12/31/2021,Active,03/08/2016,Tobacco Retail Dealer,EXPRESS GROCERY INC,,22621,MERRICK BLVD,,LAURELTON,NY,11413,718-749-5963,Queens,4,413,31,4279349,4129650015,,,,-73.74367211915735,40.67721195679417,"(40.67721195679417, -73.74367211915735)"
1041533-DCA,Business,12/31/2021,Active,11/30/2000,Tobacco Retail Dealer,"LEE, SANG DUCK",HY-DELI,1990,HYLAN BLVD,,STATEN ISLAND,NY,10306,718-67-0929,Staten Island,5,502,50,5053169,5036660031,SI36,11201,,-74.09818057554347,40.58143733218266,"(40.58143733218266, -74.09818057554347)"
2012073-1-DCA,Business,12/31/2021,Active,08/15/2014,Tobacco Retail Dealer,CIBAO FOOD CENTER CORP,,2059,7TH AVE,,NEW YORK,NY,10027,718-388-2039,Manhattan,1,110,09,1079492,1019070061,MN11,222,,-73.94933776364695,40.80756828822049,"(40.80756828822049, -73.94933776364695)"
2044177-1-DCA,Business,12/31/2021,Active,09/27/2016,Tobacco Retail Dealer,REYES DELI GROCERY CORP.,,676,CASTLE HILL AVE,,BRONX,NY,10473,718-684-4101,Bronx,2,209,18,2021951,2035750032,BX09,90,,-73.84839523556464,40.820646181667605,"(40.820646181667605, -73.84839523556464)"
2033288-1-DCA,Business,12/31/2021,Active,02/16/2016,Tobacco Retail Dealer,CITI LINE TRADING INC,99 CENTS PLUS & DELI GROCERY,21512,91ST AVE,,QUEENS VILLAGE,NY,11428,718-749-5458,Queens,4,413,23,4441707,4106400001,QN34,558,,-73.74512409209214,40.72273732357522,"(40.72273732357522, -73.74512409209214)"
1302623-DCA,Business,12/31/2021,Active,10/20/2008,Tobacco Retail Dealer,"VISHWA NEWS, INC.",,17,BOND ST,,BROOKLYN,NY,11201,718-797-2532,Brooklyn,3,302,33,3329441,3001600007,BK38,37,,-73.9832831978331,40.68919448733588,"(40.68919448733588, -73.9832831978331)"
2080954-1-DCA,Business,12/31/2021,Active,12/27/2018,Tobacco Retail Dealer,SOOTTA SMOKE SHOP CORP,,501,HUDSON ST,,NEW YORK,NY,10014,347-264-4667,Manhattan,1,102,03,1011738,1006300048,MN23,75,,-74.00640102954736,40.73315838094328,"(40.73315838094328, -74.00640102954736)"
1365993-DCA,Business,12/31/2021,Active,08/09/2010,Tobacco Retail Dealer,"HUDSON GROUP (HG) RETAIL, LLC",HUDSON NEWS,1,PENN PLZ,,NEW YORK,NY,10119,2125631030,Manhattan,1,105,03,1014387,1007830070,MN17,101,,-73.99087595619766,40.75065872876379,"(40.75065872876379, -73.99087595619766)"
2045843-1-DCA,Business,12/31/2021,Active,11/22/2016,Tobacco Retail Dealer,VR GROCERY INC,,16010,HILLSIDE AVE,,JAMAICA,NY,11432,718-487-4610,Queens,4,412,24,4208952,4097640060,QN61,44602,,-73.80167881138276,40.70802139211963,"(40.70802139211963, -73.80167881138276)"
2066215-1-DCA,Business,12/31/2021,Active,02/16/2018,Tobacco Retail Dealer,SANTIAGO 2 ORGANIC FOOD CORP.,,4380,BROADWAY,,NEW YORK,NY,10040,646-838-8405,Manhattan,1,112,10,1064037,1021700001,MN35,279,,-73.9336355002379,40.854341220097886,"(40.854341220097886, -73.9336355002379)"
1420299-DCA,Business,12/31/2021,Active,03/01/2012,Tobacco Retail Dealer,STEVE CHU'S DELI & GROCERY INC,,3406,10TH ST,,ASTORIA,NY,11106,718-726-8888,Queens,4,401,26,4003862,4003240031,QN68,39,,-73.93882580238908,40.76457791754841,"(40.76457791754841, -73.93882580238908)"
1250361-DCA,Business,12/31/2021,Active,03/21/2007,Tobacco Retail Dealer,"TRES K DELI, GROCERY, FRUIT AND MEAT INC.",,125,W TREMONT AVE,,BRONX,NY,10453,718-466-5534,Bronx,2,205,14,2008601,2028690058,BX36,243,,-73.91361858586654,40.85004074060992,"(40.85004074060992, -73.91361858586654)"
1269315-DCA,Business,12/31/2021,Active,10/02/2007,Tobacco Retail Dealer,BROOKLYN MINIMART INC.,,1011,FOSTER AVE,,BROOKLYN,NY,11230,718-859-6938,Brooklyn,3,314,40,3128209,3054290030,BK42,482,,-73.9671822482148,40.63210784033442,"(40.63210784033442, -73.9671822482148)"
2004497-1127-DCA,Business,12/31/2021,Active,03/10/2014,Tobacco Retail Dealer,DELI FARMS CORPORATION,,850,LONGWOOD AVE,,BRONX,NY,10459,718-589-4944,Bronx,2,202,17,2005169,2026880048,BX33,85,,-73.90137806471634,40.81937522558501,"(40.81937522558501, -73.90137806471634)"
2003146-805-DCA,Business,12/31/2021,Active,02/03/2014,Tobacco Retail Dealer,BAGELS ON THE ISLAND CORP,,1180,FOREST AVE,,STATEN ISLAND,NY,10310,718-720-5827,Staten Island,5,501,49,5009720,5003540076,SI07,151,,-74.12942636021843,40.62650068885066,"(40.62650068885066, -74.12942636021843)"
1348053-DCA,Business,12/31/2021,Active,03/23/2010,Tobacco Retail Dealer,MOON CONVENIENCE & DELI INC.,,7402,NEW UTRECHT AVE,,BROOKLYN,NY,11204,347-312-3882,Brooklyn,3,311,43,3159556,3062140012,BK28,188,,-73.99975867003378,40.61648368593755,"(40.61648368593755, -73.99975867003378)"
1240101-DCA,Business,12/31/2021,Active,09/27/2006,Tobacco Retail Dealer,"BRANCO & BRANCO I, INC.",JUST DELICIOUS,80,VARICK ST,,NEW YORK,NY,10013,212-431-6161,Manhattan,1,102,01,1007118,1004770001,MN24,37,,-74.00620525818007,40.72321414039738,"(40.72321414039738, -74.00620525818007)"
2096204-1-DCA,Business,12/31/2021,Active,08/14/2020,Tobacco Retail Dealer,JUNCTION GROCERY & DISCOUNT STORE INC,,4910,JUNCTION BLVD,,ELMHURST,NY,11373,9294290109,Queens,4,404,25,4437285,4018770029,,,,-73.86750197378751,40.74200553296877,"(40.74200553296877, -73.86750197378751)"
1134342-DCA,Business,12/31/2022,Active,04/10/2003,Tobacco Retail Dealer,"PJS GROCERY, INC.",,230,E 14TH ST,,NEW YORK,NY,10003,212-614-8766,Manhattan,1,103,02,1006903,1004690023,MN22,40,,-73.98636808862267,40.73294091639632,"(40.73294091639632, -73.98636808862267)"
2090449-2-DCA,Business,12/31/2022,Active,09/11/2019,Tobacco Retail Dealer,USA MOES DELI INC,,9608,LIBERTY AVE,,OZONE PARK,NY,11417,7186661408,Queens,4,410,32,4191225,4091690001,QN56,4002,,-73.84284031742945,40.68063722170565,"(40.68063722170565, -73.84284031742945)"
2017356-2-DCA,Business,12/31/2022,Active,01/15/2015,Tobacco Retail Dealer,87TH ROAD MINI MARKET INC.,,14403,87TH RD,,JAMAICA,NY,11435,718-206-1145,Queens,4,408,24,4207354,4097030001,QN35,232,,-73.81161412280261,40.70606459083069,"(40.70606459083069, -73.81161412280261)"
1422155-DCA,Business,12/31/2022,Active,03/16/2012,Tobacco Retail Dealer,332 GROCERY STORE INC.,,332,SAINT ANNS AVE,,BRONX,NY,10454,718-665-5003,Bronx,2,201,08,2003685,2025560001,BX39,33,,-73.91596915796643,40.80912152231549,"(40.80912152231549, -73.91596915796643)"
1458678-DCA,Business,12/31/2022,Active,02/28/2013,Tobacco Retail Dealer,952 FOOD CORP,,952,4TH AVE,,BROOKLYN,NY,11232,718-965-7449,Brooklyn,3,307,38,3337060,3006960031,BK32,84,,-74.00451578429833,40.65423265728589,"(40.65423265728589, -74.00451578429833)"
2088278-2-DCA,Business,12/31/2022,Active,07/16/2019,Tobacco Retail Dealer,BUSHWICK DELI INC I,,1449,MYRTLE AVE,,BROOKLYN,NY,11237,718-386-4560,Brooklyn,3,304,37,3326381,3033000001,BK77,431,,-73.91794379070257,40.69885822813454,"(40.69885822813454, -73.91794379070257)"
1247634-DCA,Business,12/31/2022,Active,02/01/2007,Tobacco Retail Dealer,"RIGHT HERE CO., INC.",NICE DAY DISCOUNT,13687,ROOSEVELT AVE,,FLUSHING,NY,11354,718-445-2048,Queens,4,407,20,4308851,4049800050,QN22,871,,-73.82760726395954,40.760208075549095,"(40.760208075549095, -73.82760726395954)"
2022860-2-DCA,Business,12/31/2022,Active,05/15/2015,Tobacco Retail Dealer,ELIAN GROCERY CORP,,2689,PITKIN AVE,,BROOKLYN,NY,11208,347-663-7190,Brooklyn,3,305,42,3094678,3042120037,BK82,1196,,-73.87289081569378,40.67527262147232,"(40.67527262147232, -73.87289081569378)"
1276848-DCA,Business,12/31/2022,Active,02/01/2008,Tobacco Retail Dealer,TURCA GROCERY CORP,,1142,E 165TH ST,,BRONX,NY,10459,718-860-9944,Bronx,2,202,17,2006272,2027560080,BX27,119,,-73.88750899479169,40.825227994285406,"(40.825227994285406, -73.88750899479169)"
2096269-1-DCA,Business,12/31/2021,Active,08/24/2020,Tobacco Retail Dealer,DREAMERS DELI INC.,,969,SENECA AVE,,RIDGEWOOD,NY,11385,3474581536,Queens,4,405,34,4086219,4035730001,,,,-73.90244947058483,40.69971897496642,"(40.69971897496642, -73.90244947058483)"
2085155-2-DCA,Business,12/31/2022,Active,04/25/2019,Tobacco Retail Dealer,"523 DELI & GRILL, CORP",,523,GRAND ST,,NEW YORK,NY,10002,212-475-5936,Manhattan,1,103,01,1003742,1002880034,MN28,202,,-73.9820575856655,40.714572406424836,"(40.714572406424836, -73.9820575856655)"
1462664-DCA,Business,12/31/2022,Active,04/18/2013,Tobacco Retail Dealer,BORO PARK DELI GROCERY CORP,,4928,NEW UTRECHT AVE,,BROOKLYN,NY,11219,347-787-1789,Brooklyn,3,312,44,3137679,3056400044,BK88,220,,-73.99477923671975,40.636333888750734,"(40.636333888750734, -73.99477923671975)"
2056144-2-DCA,Business,12/31/2022,Active,07/24/2017,Tobacco Retail Dealer,15 ISLAND DELI GROCERY INC,,15,CORSON AVE,,STATEN ISLAND,NY,10301,718-720-5794,Staten Island,5,501,49,5089359,5000180073,SI22,11,,-74.07928652024391,40.63822527886045,"(40.63822527886045, -74.07928652024391)"
1471634-DCA,Business,12/31/2022,Active,08/16/2013,Tobacco Retail Dealer,8TH AVENUE TOBACCO AND MAGAZINE INC.,,334,9TH AVE,,NEW YORK,NY,10001,516-221-3527,Manhattan,1,104,03,1013465,1007530002,MN13,97,,-73.99847692611054,40.75038735005955,"(40.75038735005955, -73.99847692611054)"
1386926-DCA,Business,12/31/2022,Active,04/06/2011,Tobacco Retail Dealer,"581 MYRTLE AVE. FOOD, INC.",,596,MYRTLE AVE,,BROOKLYN,NY,11205,347-533-8500,Brooklyn,3,303,33,3054912,3019100028,BK69,193,,-73.96054171264953,40.69406639220073,"(40.69406639220073, -73.96054171264953)"
2056783-2-DCA,Business,12/31/2022,Active,08/08/2017,Tobacco Retail Dealer,FARMER IN THE DELI CORP.,,357,MYRTLE AVE,,BROOKLYN,NY,11205,718-875-9067,Brooklyn,3,302,35,3058117,3020450100,BK68,187,,-73.97172108159027,40.69321331431155,"(40.69321331431155, -73.97172108159027)"
1341526-DCA,Business,12/31/2022,Active,12/28/2009,Tobacco Retail Dealer,BAYCHESTER EXPRESS DELI INC.,,3929,BAYCHESTER AVE,,BRONX,NY,10466,718-325-7960,Bronx,2,212,12,2066572,2049540061,BX62,426,,-73.84219931901391,40.88905241300641,"(40.88905241300641, -73.84219931901391)"
2054922-2-DCA,Business,12/31/2022,Active,06/23/2017,Tobacco Retail Dealer,MAYIMBE GROCERY CORP,,200,STANTON ST,,NEW YORK,NY,10002,646-781-9334,Manhattan,1,103,02,1004146,1003450029,MN28,2201,,-73.9828750985277,40.719751893459026,"(40.719751893459026, -73.9828750985277)"
2049119-2-DCA,Business,12/31/2022,Active,03/06/2017,Tobacco Retail Dealer,STOP ONE DELI & GROCERY INC  II,,1222,BUSHWICK AVE,,BROOKLYN,NY,11221,646-919-8826,Brooklyn,3,304,37,3326211,3033940029,BK78,397,,-73.9152385846285,40.68783601640479,"(40.68783601640479, -73.9152385846285)"
2049410-2-DCA,Business,12/31/2022,Active,03/09/2017,Tobacco Retail Dealer,ASRA MINI MART AND DELI INC.,CORNER CONVEIENCE & GROCERY,2801,MIDDLETOWN RD,,BRONX,NY,10461,718-239-9761,Bronx,2,210,13,2045755,2041520003,BX10,26602,,-73.83667646295471,40.843471715995236,"(40.843471715995236, -73.83667646295471)"
1307096-DCA,Business,12/31/2022,Active,01/07/2009,Tobacco Retail Dealer,"BENJAMIN, FLORES",LA COSTENITA GROCERY,2175,2ND AVE,,NEW YORK,NY,10029,2124265691,Manhattan,1,111,08,1052504,1016610027,MN34,180,,-73.93979893910506,40.79424903012824,"(40.79424903012824, -73.93979893910506)"
1457672-DCA,Business,12/31/2022,Active,03/07/2013,Tobacco Retail Dealer,10413 JAMAICA CORP,FIVE STARS DELI GROCERY,10413,JAMAICA AVE,,RICHMOND HILL,NY,11418,7188460480,Queens,4,409,32,4192008,4092000044,QN54,26,,-73.8427194265643,40.69520632189288,"(40.69520632189288, -73.8427194265643)"
1064534-DCA,Business,12/31/2022,Active,10/23/2000,Tobacco Retail Dealer,LANTIGUA DELI CORP.,,3074,14TH ST,,ASTORIA,NY,11102,718-728-6540,Queens,4,401,22,4005707,4005170001,QN71,79,,-73.93137384777121,40.76906960673831,"(40.76906960673831, -73.93137384777121)"
2026273-2-DCA,Business,12/31/2022,Active,07/28/2015,Tobacco Retail Dealer,TEJADA GROCERY STORE CORPORATION,,78,WESTERVELT AVE,,STATEN ISLAND,NY,10301,718-727-2462,Staten Island,5,501,49,5001186,5000510188,SI22,7,,-74.0858357429976,40.64566443809583,"(40.64566443809583, -74.0858357429976)"
2058021-2-DCA,Business,12/31/2022,Active,09/11/2017,Tobacco Retail Dealer,"FIVE BROTHERS TRADING, INC.",Baker House Market,4107,CRESCENT ST,,LONG ISLAND CITY,NY,11101,7184722450,Queens,4,401,26,4005008,4004150020,QN68,33,,-73.9393174040281,40.75197979777911,"(40.75197979777911, -73.9393174040281)"
2047238-2-DCA,Business,12/31/2022,Active,01/10/2017,Tobacco Retail Dealer,CLINTON FRUIT MARKET INC.,,681,9TH AVE,,NEW YORK,NY,10036,646-998-3474,Manhattan,1,104,03,1026493,1010560036,MN15,127,,-73.99039075786746,40.76151690163327,"(40.76151690163327, -73.99039075786746)"
2023575-2-DCA,Business,12/31/2022,Active,06/01/2015,Tobacco Retail Dealer,"NIMU AT FOREST AVENUE, LLC",7 ELEVEN STORE,1252,FOREST AVE,,STATEN ISLAND,NY,10302,718-728-8280,Staten Island,5,501,49,5011123,5003880054,SI07,201,,-74.1316307455147,40.626330753762886,"(40.626330753762886, -74.1316307455147)"
1145336-DCA,Business,12/31/2022,Active,07/14/2003,Tobacco Retail Dealer,SMA DELI GROCERY CORP.,,2487,EASTCHESTER RD,,BRONX,NY,10469,718-829-3655,Bronx,2,211,13,2052900,2044770037,BX31,312,,-73.84339069676287,40.86232618642544,"(40.86232618642544, -73.84339069676287)"
2052324-2-DCA,Business,12/31/2022,Active,05/03/2017,Tobacco Retail Dealer,ALWAJIH DELI INC,,125,MALCOLM X BLVD,,BROOKLYN,NY,11221,347-320-4205,Brooklyn,3,303,36,3044525,3016320006,BK35,387,,-73.93029136718931,40.68918831241119,"(40.68918831241119, -73.93029136718931)"
1398208-DCA,Business,12/31/2022,Active,07/01/2011,Tobacco Retail Dealer,"180 MARKETPLACE, INC.",JUBILEE MARKET,180,RIVERSIDE BLVD,,NEW YORK,NY,10069,212-877-6000,Manhattan,1,107,06,1085805,1011710129,MN14,155,,-73.98848548648573,40.77838315223703,"(40.77838315223703, -73.98848548648573)"
1386246-DCA,Business,12/31/2022,Active,03/30/2011,Tobacco Retail Dealer,"ALROBAEY, JAMAL ALI MOHAMMED",BAY DELI & GROCERY,680,BAY ST,,STATEN ISLAND,NY,10304,3474480490,Staten Island,5,501,49,5113098,5005280034,SI37,27,,-74.07494478655275,40.62541002406252,"(40.62541002406252, -74.07494478655275)"
2022212-2-DCA,Business,12/31/2022,Active,05/05/2015,Tobacco Retail Dealer,K & M EXPRESS DELI INC,,728,ROGERS AVE,,BROOKLYN,NY,11226,7187039607,Brooklyn,3,317,40,3116658,3050840056,BK60,822,,-73.9527883661536,40.653556074343776,"(40.653556074343776, -73.9527883661536)"
2088324-2-DCA,Business,12/31/2022,Active,07/16/2019,Tobacco Retail Dealer,SHIVALAY DELI INC,,7106,KISSENA BLVD,,FLUSHING,NY,11367,3478863924,Queens,4,408,24,4144882,4066980001,QN37,77906,,-73.81518138267809,40.72942833272947,"(40.72942833272947, -73.81518138267809)"
2091077-2-DCA,Business,12/31/2022,Active,10/02/2019,Tobacco Retail Dealer,MAHANT 385 INC,,385,CANAL ST,,NEW YORK,NY,10013,3477011924,Manhattan,1,102,01,1002937,1002270003,MN24,47,,-74.00476565638944,40.72144932942196,"(40.72144932942196, -74.00476565638944)"
2084482-2-DCA,Business,12/31/2022,Active,04/10/2019,Tobacco Retail Dealer,SOSO DELIGHT FOOD & GROCERY CORP,,448,HUDSON ST,,NEW YORK,NY,10014,718-836-3320,Manhattan,1,102,03,1077817,1005847501,MN23,67,,-74.00667506657243,40.73126448473732,"(40.73126448473732, -74.00667506657243)"
2057389-2-DCA,Business,12/31/2022,Active,08/23/2017,Tobacco Retail Dealer,DAY & NIGHT DELI GROCERY CORP I,,73,BUSHWICK AVE,,BROOKLYN,NY,11211,718-486-3800,Brooklyn,3,301,34,3070384,3029190001,BK90,481,,-73.94108452809672,40.712771889162674,"(40.712771889162674, -73.94108452809672)"
2026192-2-DCA,Business,12/31/2022,Active,07/27/2015,Tobacco Retail Dealer,UNCLE & COUSINS DELI GROCERY CORP,,9706,SEAVIEW AVE,,BROOKLYN,NY,11236,718-531-6333,Brooklyn,3,318,46,3235260,3083290001,BK50,1034,,-73.88940944971365,40.63397520269555,"(40.63397520269555, -73.88940944971365)"
2020446-2-DCA,Business,12/31/2022,Active,04/03/2015,Tobacco Retail Dealer,MV QUICK FOOD CORP,,2875,W 8TH ST,,BROOKLYN,NY,11224,718-946-8807,Brooklyn,3,313,48,3196590,3072790153,BK23,354,,-73.97631993815637,40.57843285579472,"(40.57843285579472, -73.97631993815637)"
2058840-2-DCA,Business,12/31/2022,Active,09/29/2017,Tobacco Retail Dealer,Vijesh Patel,,S/W/C,6 AVENUE,WEST   36 STREET,NEW YORK,NY,10018,516-784-9844,Manhattan,1,105,04,,,,,,-73.98685162090624,40.75108103078343,"(40.75108103078343, -73.98685162090624)"
2089820-2-DCA,Business,12/31/2022,Active,08/21/2019,Tobacco Retail Dealer,BRIDGE FOOD MART CORP.,,427,WYTHE AVE,,BROOKLYN,NY,11249,,Brooklyn,3,301,33,3059502,3021300001,BK73,549,,-73.9669130633306,40.70997706288103,"(40.70997706288103, -73.9669130633306)"
2089822-2-DCA,Business,12/31/2022,Active,08/21/2019,Tobacco Retail Dealer,ACOSTA GROCERY STORE CORP,,313,WILSON AVE,,BROOKLYN,NY,11237,718-574-2250,Brooklyn,3,304,37,3075664,3033070001,BK77,433,,-73.91867130660404,40.69670135663483,"(40.69670135663483, -73.91867130660404)"
2028187-2-DCA,Business,12/31/2022,Active,09/09/2015,Tobacco Retail Dealer,LOS PEREZ DELI FOOD CORP.,,2629,MARION AVE,,BRONX,NY,10458,718-933-5358,Bronx,2,207,15,2016645,2032870115,BX05,40502,,-73.89107261738864,40.864368216393366,"(40.864368216393366, -73.89107261738864)"
1286676-DCA,Business,12/31/2022,Active,05/27/2008,Tobacco Retail Dealer,"MYRTLE CONVENIENT DELI, INC.",,6815,MYRTLE AVE,,GLENDALE,NY,11385,718-366-7278,Queens,4,405,30,4089535,4036820044,QN19,627,,-73.88405320751781,40.70168638061972,"(40.70168638061972, -73.88405320751781)"
2060571-2-DCA,Business,12/31/2022,Active,11/09/2017,Tobacco Retail Dealer,MJ DELI & GROCERY FOOD CORP,,11002,GUY R BREWER BLVD,,JAMAICA,NY,11433,7186583818,Queens,4,412,28,4263644,4121650035,QN01,262,,-73.78880225776359,40.69320141020926,"(40.69320141020926, -73.78880225776359)"
1385840-DCA,Business,12/31/2022,Active,03/22/2011,Tobacco Retail Dealer,"FIRST STOP GROCERY I, INC.",,3185,FULTON ST,,BROOKLYN,NY,11208,718-235-9193,Brooklyn,3,305,37,3327209,3041260001,BK83,117601,,-73.87728711478805,40.68220795460841,"(40.68220795460841, -73.87728711478805)"
2047934-2-DCA,Business,12/31/2022,Active,02/01/2017,Tobacco Retail Dealer,QUICK STOP DELI & GRILL INC,,11501,LIBERTY AVE,,SOUTH RICHMOND HILL,NY,11419,347-261-2616,Queens,4,410,28,4201956,4095200033,QN55,98,,-73.82760501616133,40.685764606383714,"(40.685764606383714, -73.82760501616133)"
2031396-2-DCA,Business,12/31/2022,Active,12/15/2015,Tobacco Retail Dealer,WOODLAWN & JEROME CORP.,JEROME WOODLAWN,3598,JEROME AVE,,BRONX,NY,10467,718-708-4618,Bronx,2,207,11,2017852,2033290085,BX43,431,,-73.87923752128341,40.88537530783482,"(40.88537530783482, -73.87923752128341)"
2048207-2-DCA,Business,12/31/2022,Active,02/08/2017,Tobacco Retail Dealer,BAEZ DELI GROCERY CORP.,,751,HOME ST,,BRONX,NY,10456,9175772146,Bronx,2,203,17,2004736,2026620046,BX35,135,,-73.90183118276158,40.82815322067226,"(40.82815322067226, -73.90183118276158)"
2090834-2-DCA,Business,12/31/2022,Active,09/24/2019,Tobacco Retail Dealer,FINEST COLUMBIA DELI INC,,945,AMSTERDAM AVE,,NEW YORK,NY,10025,212-665-6410,Manhattan,1,107,07,1055950,1018610003,MN09,193,,-73.96551712358878,40.80068500231339,"(40.80068500231339, -73.96551712358878)"
2058686-2-DCA,Business,12/31/2022,Active,09/26/2017,Tobacco Retail Dealer,WALK IN DELI INC,,87,WYTHE AVE,,BROOKLYN,NY,11249,,Brooklyn,3,301,33,3061596,3022960004,BK73,557,,-73.95843674326747,40.72136781745794,"(40.72136781745794, -73.95843674326747)"
1150852-DCA,Business,12/31/2022,Active,09/05/2003,Tobacco Retail Dealer,AHMED ABDO ALHAJAJ & HUSSEIN MOHAMED ISMAIL,RAYAN CANDY & NEWSTAND,3812,DYRE AVE,,BRONX,NY,10466,718-325-0489,Bronx,2,212,12,2095125,2049500091,BX03,484,,-73.83128278201279,40.888136714493704,"(40.888136714493704, -73.83128278201279)"
2063420-2-DCA,Business,12/31/2022,Active,12/15/2017,Tobacco Retail Dealer,EBB CONVENIENCE CORP.,,3968,WHITE PLAINS RD,,BRONX,NY,10466,,Bronx,2,212,12,2063413,2048380050,BX44,406,,-73.86055717594091,40.887604896922575,"(40.887604896922575, -73.86055717594091)"
1403458-DCA,Business,12/31/2022,Active,08/15/2011,Tobacco Retail Dealer,JAMBO GROCERY & CANDY CORP.,,2233A,GRAND CONCOURSE,,BRONX,NY,10453,347-854-7330,Bronx,2,205,14,2013772,2031630040,BX40,23704,,-73.9007343214369,40.85613734065176,"(40.85613734065176, -73.9007343214369)"
1064794-DCA,Business,12/31/2022,Active,10/23/2000,Tobacco Retail Dealer,FELMINGO CORP.,,189,SMITH ST,,BROOKLYN,NY,11201,718-625-6533,Brooklyn,3,306,33,3006354,3003970009,BK38,69,,-73.99138607901406,40.68534995529814,"(40.68534995529814, -73.99138607901406)"
1473190-DCA,Business,12/31/2022,Active,09/17/2013,Tobacco Retail Dealer,"KAP FUEL & FOOD, INC",,970,BLOOMINGDALE RD,,STATEN ISLAND,NY,10309,718-948-4923,Staten Island,5,503,51,5136150,5071040015,SI11,226,,-74.22099516503543,40.549487271683375,"(40.549487271683375, -74.22099516503543)"
1041626-DCA,Business,12/31/2022,Active,10/27/2000,Tobacco Retail Dealer,SON KWAN GROCERY INC.,,570,AVENUE OF THE AMERICAS,,NEW YORK,NY,10011,212-242-9119,Manhattan,1,105,03,1015317,1008170085,MN13,54,,-73.99593317467682,40.73858760878993,"(40.73858760878993, -73.99593317467682)"
2027363-2-DCA,Business,12/31/2022,Active,08/20/2015,Tobacco Retail Dealer,LASK CORP.,THE SHERPAR DELI & GROCERY,2172,21ST ST,,ASTORIA,NY,11105,7189568449,Queens,4,401,22,4020263,4008920065,QN72,103,,-73.91646351396057,40.78076881699528,"(40.78076881699528, -73.91646351396057)"
1048016-DCA,Business,12/31/2022,Active,10/23/2000,Tobacco Retail Dealer,"GRULLON, JUAN",SAN MIGUEL GROCERY,774,BURKE AVE,,BRONX,NY,10467,718-652-9536,Bronx,2,212,12,2055643,2045710025,BX07,340,,-73.86412379014003,40.871379780990395,"(40.871379780990395, -73.86412379014003)"
1468252-DCA,Business,12/31/2022,Active,06/28/2013,Tobacco Retail Dealer,JUN 0709 INC.,,600,W 42ND ST,,NEW YORK,NY,10036,212-695-9292,Manhattan,1,104,03,1085962,1010897502,MN13,117,,-73.99872936651296,40.760987559943935,"(40.760987559943935, -73.99872936651296)"
1274014-DCA,Business,12/31/2022,Active,12/10/2007,Tobacco Retail Dealer,KRISHNA NEWS INC.,,10513,CROSSBAY BLVD,,OZONE PARK,NY,11417,7186416637,Queens,4,410,32,4457277,4091630056,QN56,86,,-73.84445390271266,40.67979402285285,"(40.67979402285285, -73.84445390271266)"
2051265-2-DCA,Business,12/31/2022,Active,04/17/2017,Tobacco Retail Dealer,LUCKY HUANG GROCERY STORE INC.,,8261,BROADWAY,,ELMHURST,NY,11373,718-779-3154,Queens,4,404,25,4037524,4015180088,QN29,271,,-73.88116471945938,40.741951822051796,"(40.741951822051796, -73.88116471945938)"
1063750-DCA,Business,12/31/2022,Active,09/29/2000,Tobacco Retail Dealer,"THE SMOKING STOP, LTD.",,45,CHRISTOPHER ST,,NEW YORK,NY,10014,212-929-1151,Manhattan,1,102,03,1010699,1006107501,MN23,73,,-74.00190877946109,40.73375140990966,"(40.73375140990966, -74.00190877946109)"
2000782-2-DCA,Business,12/31/2022,Active,11/18/2013,Tobacco Retail Dealer,EL PUTNAM GROCERY CORP,,1078,PUTNAM AVE,,BROOKLYN,NY,11221,347-430-2490,Brooklyn,3,303,41,3039820,3014860027,BK35,375,,-73.9192160997247,40.68756988974404,"(40.68756988974404, -73.9192160997247)"
2024013-2-DCA,Business,12/31/2022,Active,06/08/2015,Tobacco Retail Dealer,YOGI STATIONARY LLC,,7,HYATT ST,,STATEN ISLAND,NY,10301,7189810428,Staten Island,5,501,49,5000086,5000080086,SI22,3,,-74.0766679643186,40.642152099900876,"(40.642152099900876, -74.0766679643186)"
2088283-2-DCA,Business,12/31/2022,Active,07/16/2019,Tobacco Retail Dealer,PRAMUKH 1929 INC,,1929,AVENUE U,,BROOKLYN,NY,11229,347-813-7507,Brooklyn,3,315,48,3198274,3073240042,BK44,578,,-73.95218934706962,40.59930504688965,"(40.59930504688965, -73.95218934706962)"
2054184-2-DCA,Business,12/31/2022,Active,06/08/2017,Tobacco Retail Dealer,A.M BEST DELI & GROCERY INC.,,3631,HOLLAND AVE,,BRONX,NY,10467,347-843-7113,Bronx,2,212,12,2057848,2046620021,BX44,380,,-73.86354652048252,40.87958024855114,"(40.87958024855114, -73.86354652048252)"
1179936-DCA,Business,12/31/2022,Active,09/14/2004,Tobacco Retail Dealer,"PATEL, HANSA",HANSA PATEL NEWSSTAND,S/W/C,3 AVENUE,EAST   59 STREET,NEW YORK,NY,10022,718-776-8239,Manhattan,1,106,04,,,,,,-73.96658422171976,40.761550882570425,"(40.761550882570425, -73.96658422171976)"
2093896-2-DCA,Business,12/31/2022,Active,01/24/2020,Tobacco Retail Dealer,14TH ST DELI CORP,,1133,BRIGHTON BEACH AVE,,BROOKLYN,NY,11235,718-676-0207,Brooklyn,3,313,48,3245666,3087170020,,,,-73.95583347132629,40.577682964880154,"(40.577682964880154, -73.95583347132629)"
2020270-2-DCA,Business,12/31/2022,Active,04/01/2015,Tobacco Retail Dealer,LINDEN & WILSON CORP.,,338,WILSON AVE,,BROOKLYN,NY,11221,718-443-9410,Brooklyn,3,304,37,3076293,3033330031,BK78,417,,-73.91705325494672,40.695764235686994,"(40.695764235686994, -73.91705325494672)"
2058041-2-DCA,Business,12/31/2022,Active,09/11/2017,Tobacco Retail Dealer,BRADDOCK DELI & GROCERY CORP,,22215,BRADDOCK AVE,,QUEENS VILLAGE,NY,11428,718-468-3665,Queens,4,413,23,4166384,4079490003,QN43,1301,,-73.7375599990108,40.728832931813166,"(40.728832931813166, -73.7375599990108)"
1299008-DCA,Business,12/31/2022,Active,09/10/2008,Tobacco Retail Dealer,SMILEY MINI MARKET INC.,,8811,FLATLANDS AVE,,BROOKLYN,NY,11236,7182570112,Brooklyn,3,318,46,3224611,3080090005,BK50,964,,-73.907301078791,40.63938178352069,"(40.63938178352069, -73.907301078791)"
2031485-2-DCA,Business,12/31/2022,Active,12/17/2015,Tobacco Retail Dealer,ARTHUR AVENUE NEWS LLC,,2393,ARTHUR AVE,,BRONX,NY,10458,3472678320,Bronx,2,206,15,2011896,2030650044,BX06,391,,-73.88774723219866,40.85535417373742,"(40.85535417373742, -73.88774723219866)"
2060821-1-DCA,Business,12/31/2022,Active,11/15/2017,Tobacco Retail Dealer,TOP 1 DELI GRILL INC,,9707,57TH AVE,,CORONA,NY,11368,718-606-8158,Queens,4,404,21,4047159,4019050001,QN25,44302,,-73.86376582481542,40.73725549264778,"(40.73725549264778, -73.86376582481542)"
2095803-1-DCA,Business,12/31/2021,Active,06/09/2020,Tobacco Retail Dealer,BAZAAR DELI & GROCERY INC,,30,AVENUE O,,BROOKLYN,NY,11204,7182364531,Brooklyn,3,311,44,3174094,3065960009,,,,-73.98416016244268,40.61018878277326,"(40.61018878277326, -73.98416016244268)"
2031822-2-DCA,Business,12/31/2022,Active,12/29/2015,Tobacco Retail Dealer,BROADWAY BEER AND SMOKE INC.,,3110,BROADWAY,,ASTORIA,NY,11106,9175864084,Queens,4,401,22,4008258,4006110037,QN70,59,,-73.9252120977054,40.76188278082406,"(40.76188278082406, -73.9252120977054)"
1413952-DCA,Business,12/31/2022,Active,11/17/2011,Tobacco Retail Dealer,I & R DELI INC.,,6908,15TH AVE,,BROOKLYN,NY,11228,718-236-9102,Brooklyn,3,311,43,3156560,3061570042,BK28,190,,-73.99962177111097,40.620932993725,"(40.620932993725, -73.99962177111097)"
1215884-DCA,Business,12/31/2022,Active,12/12/2005,Tobacco Retail Dealer,L & E SUPERMARKET & DELI INC.,,4418,4TH AVE,,BROOKLYN,NY,11220,718-768-6580,Brooklyn,3,307,38,3011145,3007370045,BK32,80,,-74.00925798650655,40.64967328993781,"(40.64967328993781, -74.00925798650655)"
1382294-DCA,Business,12/31/2022,Active,02/09/2011,Tobacco Retail Dealer,BODELI CORP,,2710A,E TREMONT AVE,,BRONX,NY,10461,718-892-6800,Bronx,2,210,13,2041964,2039880032,BX37,200,,-73.84549006504328,40.8425698696452,"(40.8425698696452, -73.84549006504328)"
2082083-2-DCA,Business,12/31/2022,Active,02/08/2019,Tobacco Retail Dealer,"MAHANT 277, INC",,277,CANAL ST,,NEW YORK,NY,10013,,Manhattan,1,102,01,1002678,1002090001,MN24,45,,-74.00150792988558,40.719141075849485,"(40.719141075849485, -74.00150792988558)"
1068052-DCA,Business,12/31/2022,Active,11/30/2000,Tobacco Retail Dealer,SCHUYLER DELI CORP.,,3610,E TREMONT AVE,,BRONX,NY,10465,718-792-3025,Bronx,2,210,13,2079886,2055430027,BX52,152,,-73.8240233481903,40.828318740453575,"(40.828318740453575, -73.8240233481903)"
2030557-2-DCA,Business,12/31/2022,Active,11/18/2015,Tobacco Retail Dealer,199 WATER NEWSSTAND INC.,,199,WATER ST,,NEW YORK,NY,10038,212-480-5911,Manhattan,1,101,01,1001162,1000747501,MN25,1502,,-74.00431378701295,40.707269910970616,"(40.707269910970616, -74.00431378701295)"
2062953-2-DCA,Business,12/31/2022,Active,12/11/2017,Tobacco Retail Dealer,DEMARIE LLC,Davidoff of Geneva,156,BROADWAY,,BROOKLYN,NY,11211,,Brooklyn,3,301,34,3059531,3021327506,BK73,549,,-73.96301019953431,40.71015428452948,"(40.71015428452948, -73.96301019953431)"
1459386-DCA,Business,12/31/2022,Active,04/15/2013,Tobacco Retail Dealer,TOP DELI GROCERY INC.,,9512,35TH AVE,,JACKSON HTS,NY,11372,718-606-8158,Queens,4,403,21,4546998,4014690006,QN28,273,,-73.8724209333528,40.75317673617984,"(40.75317673617984, -73.8724209333528)"
2083712-2-DCA,Business,12/31/2022,Active,03/26/2019,Tobacco Retail Dealer,24/7 KING DELI CORP,,3593,3RD AVE,,BRONX,NY,10456,607-261-0980,Bronx,2,203,16,2128574,2023737501,BX01,145,,-73.90517828887083,40.83245424501677,"(40.83245424501677, -73.90517828887083)"
2048126-2-DCA,Business,12/31/2022,Active,02/07/2017,Tobacco Retail Dealer,"86TH STREET OPTIMO CENTER, INC",,1516,86TH ST,,BROOKLYN,NY,11228,3475544333,Brooklyn,3,311,43,3166170,3063600043,BK27,172,,-74.00910857797811,40.61115019136147,"(40.61115019136147, -74.00910857797811)"
2052641-2-DCA,Business,12/31/2022,Active,05/08/2017,Tobacco Retail Dealer,COLORADO DELI FOOD CORP.,,1158,GERARD AVE,,BRONX,NY,10452,347-297-8140,Bronx,2,204,16,2002954,2024790001,BX63,197,,-73.92092790077417,40.834318800045416,"(40.834318800045416, -73.92092790077417)"
1341626-DCA,Business,12/31/2022,Active,12/29/2009,Tobacco Retail Dealer,1517 DELI GROCERY CORP.,,1517,SAINT NICHOLAS AVE,,NEW YORK,NY,10033,212-928-2232,Manhattan,1,112,10,1063969,1021660044,MN35,271,,-73.93157717073333,40.85228149015591,"(40.85228149015591, -73.93157717073333)"
2090231-2-DCA,Business,12/31/2022,Active,09/05/2019,Tobacco Retail Dealer,FRESH DELI AND GROCERY 1 CORP,,6274,FRESH POND RD,,RIDGEWOOD,NY,11385,646-321-5111,Queens,4,405,30,4084579,4035210049,QN20,593,,-73.90040384158985,40.71231020925489,"(40.71231020925489, -73.90040384158985)"
2053335-2-DCA,Business,12/31/2022,Active,05/22/2017,Tobacco Retail Dealer,1454 MC DELI GROCERY CORP,,1454,GRAND CONCOURSE,,BRONX,NY,10457,7185385127,Bronx,2,204,14,2007991,2028320030,BX14,225,,-73.91301717836832,40.84004406278686,"(40.84004406278686, -73.91301717836832)"
2056183-2-DCA,Business,12/31/2022,Active,07/25/2017,Tobacco Retail Dealer,857 COMMUNITY DELI & GRILL CORP,,857,E 241ST ST,,BRONX,NY,10470,718-325-8057,Bronx,2,212,11,2071959,2051170055,BX62,442,,-73.84707069779556,40.90177509898233,"(40.90177509898233, -73.84707069779556)"
2031191-2-DCA,Business,12/31/2022,Active,12/09/2015,Tobacco Retail Dealer,5 STAR EXPRESS DELI AND GROCERY CORP,,1176,NOSTRAND AVE,,BROOKLYN,NY,11225,347-241-6164,Brooklyn,3,309,40,3115474,3050390047,BK60,802,,-73.9504383060806,40.658797618160314,"(40.658797618160314, -73.9504383060806)"
1454884-DCA,Business,12/31/2022,Active,01/25/2013,Tobacco Retail Dealer,1430 FOOD CORP I,,1430,ROCKAWAY PKWY,,BROOKLYN,NY,11236,718-272-1150,Brooklyn,3,318,42,3229364,3081650001,BK50,968,,-73.90248942087474,40.64528184073729,"(40.64528184073729, -73.90248942087474)"
2065446-2-DCA,Business,12/31/2022,Active,01/29/2018,Tobacco Retail Dealer,SHANI VILLAGE POP INC.,,311,6TH AVE,,NEW YORK,NY,10014,2122557000,Manhattan,1,102,03,1010078,1005890038,MN23,67,,-74.00155870797856,40.73082550685727,"(40.73082550685727, -74.00155870797856)"
2031456-2-DCA,Business,12/31/2022,Active,12/16/2015,Tobacco Retail Dealer,17TH MINI MART INC,,8306,17TH AVE,,BROOKLYN,NY,11214,646-708-5911,Brooklyn,3,311,43,3164527,3063120042,BK28,182,,-74.00314420008586,40.61025570626762,"(40.61025570626762, -74.00314420008586)"
2093901-2-DCA,Business,12/31/2022,Active,01/24/2020,Tobacco Retail Dealer,STOP AND GO GROCERY STORE INC,,2028,MERMAID AVE,,BROOKLYN,NY,11224,7182662377,Brooklyn,3,313,47,3189553,3070590001,,,,-73.98726399562851,40.576343050198176,"(40.576343050198176, -73.98726399562851)"
2047387-2-DCA,Business,12/31/2022,Active,01/13/2017,Tobacco Retail Dealer,ONE STOP SOUTH CONDUIT DELI INC,,23002,S CONDUIT AVE,,SPRINGFIELD GARDENS,NY,11413,347-630-6631,Queens,4,413,31,4287582,4135140001,QN03,680,,-73.747260607613,40.66545848093634,"(40.66545848093634, -73.747260607613)"
2028496-2-DCA,Business,12/31/2022,Active,09/17/2015,Tobacco Retail Dealer,"HG-KCGI-TEI JFK T8, JV",Hudson/Euro Cafe,1,JFK INTL AIRPORT BLVD,"TERM 8-B1, STORE 1296",JAMAICA,NY,11430,,Queens,4,,,,,,,,,,
2092414-2-DCA,Business,12/31/2022,Active,11/21/2019,Tobacco Retail Dealer,SEELEY GOURMET DELI INC,,251,SEELEY ST,,BROOKLYN,NY,11218,7182089882,Brooklyn,3,307,39,3121890,3052570045,,,,-73.97371925767482,40.655591155066524,"(40.655591155066524, -73.97371925767482)"
2051687-2-DCA,Business,12/31/2022,Active,04/21/2017,Tobacco Retail Dealer,ALONSO MINIMARKET CORP,,752,SENECA AVE,,RIDGEWOOD,NY,11385,718-387-7976,Queens,4,405,34,4082611,4034570028,QN20,549,,-73.90684571973107,40.70229995376231,"(40.70229995376231, -73.90684571973107)"
2082198-2-DCA,Business,12/31/2022,Active,02/12/2019,Tobacco Retail Dealer,MAHANT 3461 INC,,3461,E TREMONT AVE,,BRONX,NY,10465,347-701-1924,Bronx,2,210,13,2090315,2054190157,BX52,164,,-73.82737063325791,40.83200995701554,"(40.83200995701554, -73.82737063325791)"
1408106-DCA,Business,12/31/2022,Active,09/20/2011,Tobacco Retail Dealer,SC & IT INC.,,9744,SUTPHIN BLVD,,JAMAICA,NY,11435,718-739-7299,Queens,4,412,28,4214604,4100310025,QN61,208,,-73.8053510752357,40.69675213593888,"(40.69675213593888, -73.8053510752357)"
1472418-DCA,Business,12/31/2022,Active,08/28/2013,Tobacco Retail Dealer,GOOD NATURE 1045 INC,,1045,2ND AVE,,NEW YORK,NY,10022,2123717507,Manhattan,1,106,04,1038580,1013290021,MN19,108,,-73.96618167484506,40.75810611141994,"(40.75810611141994, -73.96618167484506)"
2092254-2-DCA,Business,12/31/2022,Active,11/15/2019,Tobacco Retail Dealer,YAZI DELI INC,,10743,GUY R BREWER BLVD,,JAMAICA,NY,11433,718-262-8655,Queens,4,412,27,4216427,4101660009,,,,-73.79187223082319,40.697442192022336,"(40.697442192022336, -73.79187223082319)"
2060630-2-DCA,Business,12/31/2022,Active,11/13/2017,Tobacco Retail Dealer,FAST STOP 1 CORP,,103,3RD AVE,,BROOKLYN,NY,11217,347-433-9977,Brooklyn,3,302,33,3005984,3003890004,BK38,127,,-73.98221389007824,40.68306525297342,"(40.68306525297342, -73.98221389007824)"
2092341-2-DCA,Business,12/31/2022,Active,11/19/2019,Tobacco Retail Dealer,6119 CSTORE INC,,6119,NORTHERN BLVD,,WOODSIDE,NY,11377,9178160227,Queens,4,401,26,4026182,4011620045,,,,-73.90096241939948,40.75393491440804,"(40.75393491440804, -73.90096241939948)"
2020465-2-DCA,Business,12/31/2022,Active,04/03/2015,Tobacco Retail Dealer,ALLY'S SMOKES AND MAGAZINES  INC,,158,W 30TH ST,,NEW YORK,NY,10001,212-804-6273,Manhattan,1,105,03,1084284,1008050097,MN17,95,,-73.9912264059419,40.747941455501326,"(40.747941455501326, -73.9912264059419)"
2047513-2-DCA,Business,12/31/2022,Active,01/19/2017,Tobacco Retail Dealer,"A-2-Z CONVENIENCE STORE, INC",,9510,37TH AVE,,JACKSON HEIGHTS,NY,11372,347-832-0937,Queens,4,403,21,4036593,4014830012,QN28,273,,-73.87189783002053,40.75116974355463,"(40.75116974355463, -73.87189783002053)"
1402686-DCA,Business,12/31/2022,Active,08/02/2011,Tobacco Retail Dealer,"RATNAM ENTERPRISE, INC.",,11109,101ST AVE,,S RICHMOND HL,NY,11419,347-444-6994,Queens,4,409,28,4198059,4094130146,QN54,118,,-73.83256418003867,40.68810224377868,"(40.68810224377868, -73.83256418003867)"
2028158-2-DCA,Business,12/31/2022,Active,09/08/2015,Tobacco Retail Dealer,SALOME GROCERY CORP,,10752,VAN WYCK EXPY,,SOUTH RICHMOND HILL,NY,11419,347-968-5804,Queens,4,410,28,4206259,4096150032,QN55,15801,,-73.8089315467965,40.68814228546905,"(40.68814228546905, -73.8089315467965)"
2091602-2-DCA,Business,12/31/2022,Active,10/22/2019,Tobacco Retail Dealer,SHIVMANI FOOD INC,,22324,UNION TPKE,,OAKLAND GARDENS,NY,11364,7184644624,Queens,4,411,23,4164970,4077990008,,,,-73.74735169826498,40.73562342527678,"(40.73562342527678, -73.74735169826498)"
1152330-DCA,Business,12/31/2022,Active,09/24/2003,Tobacco Retail Dealer,"MANAV CONVENIENCE, INC.",,3601,DITMARS BLVD,,ASTORIA,NY,11105,718-777-3746,Queens,4,401,22,4016472,4008230001,QN72,113,,-73.90807728527419,40.77428759562725,"(40.77428759562725, -73.90807728527419)"
1406920-DCA,Business,12/31/2022,Active,09/07/2011,Tobacco Retail Dealer,KEAP ST GOURMET DELI,,332,KEAP ST,,BROOKLYN,NY,11211,718-387-1412,Brooklyn,3,301,34,3063496,3024500006,BK73,527,,-73.95487383300737,40.70863352840528,"(40.70863352840528, -73.95487383300737)"
1164692-DCA,Business,12/31/2022,Active,04/16/2004,Tobacco Retail Dealer,K-N DELI & MARKET INC.,,5924,20TH AVE,,BROOKLYN,NY,11204,718-837-3264,Brooklyn,3,312,44,3131905,3055130047,BK88,244,,-73.98248290122392,40.61978159199867,"(40.61978159199867, -73.98248290122392)"
2087013-2-DCA,Business,12/31/2022,Active,06/10/2019,Tobacco Retail Dealer,MARUTI 9116 CORP,,9116,3RD AVE,,BROOKLYN,NY,11209,7187459135,Brooklyn,3,310,43,3154702,3060850044,BK31,58,,-74.03267109166819,40.61954223191983,"(40.61954223191983, -74.03267109166819)"
1186712-DCA,Business,12/31/2022,Active,04/27/2005,Tobacco Retail Dealer,"SHAUKAT, MOHAMMAD A",,N/W/C,BROADWAY,WEST   86 STREET,NEW YORK,NY,10024,3473840736,Manhattan,1,107,06,,,,,,-73.97650168911773,40.78831177991138,"(40.78831177991138, -73.97650168911773)"
2056726-2-DCA,Business,12/31/2022,Active,08/07/2017,Tobacco Retail Dealer,LOS CATRACHOS DELI CORP,,948,DUMONT AVE,,BROOKLYN,NY,11207,3474947767,Brooklyn,3,305,42,3090534,3040800023,BK82,1120,,-73.88347387478976,40.66791684137702,"(40.66791684137702, -73.88347387478976)"
2088282-2-DCA,Business,12/31/2022,Active,07/16/2019,Tobacco Retail Dealer,MAHANT 118 INC,,118,MULBERRY ST,,NEW YORK,NY,10013,347-701-1924,Manhattan,1,102,01,1077169,1002050010,MN24,41,,-73.99818547206426,40.71773026494201,"(40.71773026494201, -73.99818547206426)"
2057590-2-DCA,Business,12/31/2022,Active,08/28/2017,Tobacco Retail Dealer,DIGNORA DELI GROCERY INC,,1299,FRANKLIN AVE,,BRONX,NY,10456,718-860-9290,Bronx,2,203,16,2009714,2029310094,BX35,149,,-73.90179683929705,40.83183659927128,"(40.83183659927128, -73.90179683929705)"
2029354-2-DCA,Business,12/31/2022,Active,10/08/2015,Tobacco Retail Dealer,AMSTERDAM TOBACCO HOUSE INC,,273,AMSTERDAM AVE,,NEW YORK,NY,10023,,Manhattan,1,107,06,1029960,1011440061,MN14,157,,-73.98127472898867,40.77907662434076,"(40.77907662434076, -73.98127472898867)"
1451743-DCA,Business,12/31/2022,Active,04/05/2013,Tobacco Retail Dealer,"C STORE JFK, LLC",7 ELEVEN STORE #39681A,,JFK Building 125,,JAMAICA,NY,11430,718-513-0155,Queens,4,483,28,4597084,4142600001,,,,,,
1411382-DCA,Business,12/31/2022,Active,10/21/2011,Tobacco Retail Dealer,"BAISLEY SERVICES, INC.",,12205,MERRICK BLVD,,JAMAICA,NY,11434,917-815-1181,Queens,4,412,27,4269729,4124800001,QN08,368,,-73.76953177288979,40.68367023925017,"(40.68367023925017, -73.76953177288979)"
2092338-2-DCA,Business,12/31/2022,Active,11/19/2019,Tobacco Retail Dealer,WISE GOURMET DELI & GROCERY CORP.,,821,FRANKLIN AVE,,BROOKLYN,NY,11225,3477875762,Brooklyn,3,309,35,3032873,3012660005,,,,-73.95810088539031,40.67027932865695,"(40.67027932865695, -73.95810088539031)"
2051393-2-DCA,Business,12/31/2022,Active,04/18/2017,Tobacco Retail Dealer,1624 SMOKE SHOP CORP,,1624,NEWKIRK AVE,,BROOKLYN,NY,11226,347-445-5305,Brooklyn,3,314,40,3121207,3052370011,BK42,518,,-73.96218654869867,40.63606429019085,"(40.63606429019085, -73.96218654869867)"
2091388-2-DCA,Business,12/31/2022,Active,10/11/2019,Tobacco Retail Dealer,PUJA CONVENIENECE INC,,425,3RD AVE,,NEW YORK,NY,10016,929-268-4623,Manhattan,1,106,02,1019945,1009100061,MN20,70,,-73.98010841066993,40.74298579912999,"(40.74298579912999, -73.98010841066993)"
1065680-DCA,Business,12/31/2022,Active,11/06/2000,Tobacco Retail Dealer,57 MARKET INC.,,363,W 57TH ST,,NEW YORK,NY,10019,212-586-3066,Manhattan,1,104,03,1026047,1010480001,MN15,139,,-73.98455597662237,40.767433930803364,"(40.767433930803364, -73.98455597662237)"
2064060-2-DCA,Business,12/31/2022,Active,12/28/2017,Tobacco Retail Dealer,1925 CHURCH AVE LLC,,1925,CHURCH AVE,,BROOKLYN,NY,11226,718-826-3586,Brooklyn,3,314,40,3116543,3050800073,BK42,50801,,-73.96181113114646,40.649889649714986,"(40.649889649714986, -73.96181113114646)"
1402508-DCA,Business,12/31/2022,Active,08/01/2011,Tobacco Retail Dealer,POOJA 23 INC.,POOJA DELI CONVENIENCE,4123,UNION ST,,FLUSHING,NY,11355,718-461-9441,Queens,4,407,20,4312193,4050460049,QN22,855,,-73.82559371519108,40.758571918919145,"(40.758571918919145, -73.82559371519108)"
2059034-2-DCA,Business,12/31/2022,Active,10/05/2017,Tobacco Retail Dealer,HOME STYLE DELI GROCERY INC,,9102,104TH ST,,RICHMOND HILL,NY,11418,718-441-6535,Queens,4,409,32,4195164,4093080013,QN54,28,,-73.84198372730138,40.692177829516055,"(40.692177829516055, -73.84198372730138)"
1329324-DCA,Business,12/31/2022,Active,05/16/2011,Tobacco Retail Dealer,"ALMONTASER ENTERPRISES, LLC",,2792,FULTON ST,,BROOKLYN,NY,11207,929-250-7579,Brooklyn,3,305,37,3397940,3039470017,BK82,1198,,-73.89147788580676,40.67805289973306,"(40.67805289973306, -73.89147788580676)"
1334912-DCA,Business,12/31/2022,Active,10/01/2009,Tobacco Retail Dealer,3RD AVENUE MINI MARKET I INC.,,7024,3RD AVE,,BROOKLYN,NY,11209,718-921-2154,Brooklyn,3,310,43,3146342,3058860045,BK31,68,,-74.02648867104088,40.634651146354074,"(40.634651146354074, -74.02648867104088)"
2093127-2-DCA,Business,12/31/2022,Active,12/19/2019,Tobacco Retail Dealer,DMS CONVENIENCE STORE INC,,18008,HILLSIDE AVE,,JAMAICA,NY,11432,9173969998,Queens,4,412,27,4212376,4099160030,,,,-73.78234763176553,40.712998415798346,"(40.712998415798346, -73.78234763176553)"
1155780-DCA,Business,12/31/2022,Active,03/20/2011,Tobacco Retail Dealer,"TINEO, FAUSTO A",J & C MINI MARKET & FRUITS,42,IRVING AVE,,BROOKLYN,NY,11237,7184979056,Brooklyn,3,304,34,3072370,3031750036,BK77,427,,-73.92470618471744,40.70488212399457,"(40.70488212399457, -73.92470618471744)"
2031239-2-DCA,Business,12/31/2022,Active,12/10/2015,Tobacco Retail Dealer,COZY GOURMET INC.,,565,GRAND ST,,NEW YORK,NY,10002,212-473-6930,Manhattan,1,103,02,1003219,1002660065,MN28,202,,-73.97963013013594,40.713861109322096,"(40.713861109322096, -73.97963013013594)"
2026189-2-DCA,Business,12/31/2022,Active,07/27/2015,Tobacco Retail Dealer,SHREEJI 315 INC,,315,1ST AVE,,NEW YORK,NY,10003,212-533-1074,Manhattan,1,106,02,1020489,1009240031,MN21,48,,-73.98056937440188,40.73390349266078,"(40.73390349266078, -73.98056937440188)"
1225300-DCA,Business,12/31/2022,Active,04/28/2006,Tobacco Retail Dealer,2502 BROADWAY GROCERY CORP.,,2502,BROADWAY,,ASTORIA,NY,11106,347-828-2778,Queens,4,401,22,4007154,4005800018,QN70,53,,-73.92821753008961,40.76330646983373,"(40.76330646983373, -73.92821753008961)"
1387884-DCA,Business,12/31/2022,Active,04/14/2011,Tobacco Retail Dealer,"ALAABELI, ABDO H M",HEAVEN'S DELI GROCERY,10220,101ST AVE,,OZONE PARK,NY,11416,347-575-9675,Queens,4,409,32,4445429,4094200008,QN54,112,,-73.84051686363158,40.6858161630992,"(40.6858161630992, -73.84051686363158)"
2023686-2-DCA,Business,12/31/2022,Active,06/02/2015,Tobacco Retail Dealer,2918 GAS CORP,,2918,BOSTON RD,,BRONX,NY,10469,347-843-0808,Bronx,2,211,12,2054971,2045540001,BX31,342,,-73.85895634641446,40.868222667406,"(40.868222667406, -73.85895634641446)"
2023703-2-DCA,Business,12/31/2022,Active,06/02/2015,Tobacco Retail Dealer,CANARSIE DELI GROCERY CORP,,2124,ROCKAWAY PKWY,,BROOKLYN,NY,11236,929-238-2711,Brooklyn,3,318,46,3235273,3083310006,BK50,1028,,-73.8871869803674,40.631541159344295,"(40.631541159344295, -73.8871869803674)"
2028389-2-DCA,Business,12/31/2022,Active,09/15/2015,Tobacco Retail Dealer,LUCKY CHOICE CONVENIENCE INC,,118,W 72ND ST,,NEW YORK,NY,10023,212-595-6164,Manhattan,1,107,06,1029892,1011430039,MN14,157,,-73.97958892643857,40.77773690679308,"(40.77773690679308, -73.97958892643857)"
2051344-2-DCA,Business,12/31/2022,Active,04/17/2017,Tobacco Retail Dealer,GARDEN FRESH GOURMET DELI CORP,,969,MORRIS PARK AVE,,BRONX,NY,10462,347-691-3385,Bronx,2,211,13,2045354,2041250033,BX37,244,,-73.85725054122582,40.8476627372835,"(40.8476627372835, -73.85725054122582)"
1278182-DCA,Business,12/31/2022,Active,02/26/2008,Tobacco Retail Dealer,"DEKALB NATURAL MARKET, INC.",,230,DEKALB AVE,,BROOKLYN,NY,11205,718-398-6900,Brooklyn,3,302,35,3059136,3021050028,BK69,197,,-73.96997741127738,40.6894937099696,"(40.6894937099696, -73.96997741127738)"
2065286-2-DCA,Business,12/31/2022,Active,01/24/2018,Tobacco Retail Dealer,EAT FRESH DELI INC,,89,AVENUE C,,NEW YORK,NY,10009,212-477-8320,Manhattan,1,103,02,1004688,1003890036,MN28,2602,,-73.97925917973421,40.7235527894789,"(40.7235527894789, -73.97925917973421)"
1410420-DCA,Business,12/31/2022,Active,10/12/2011,Tobacco Retail Dealer,KHOKON CONVENIENCE INC.,,445,7TH AVE,,BROOKLYN,NY,11215,718-499-6547,Brooklyn,3,307,39,3026636,3011040006,BK37,149,,-73.98475675822418,40.663069928137716,"(40.663069928137716, -73.98475675822418)"
2030472-2-DCA,Business,12/31/2022,Active,11/16/2015,Tobacco Retail Dealer,SAMMY DELI CORP.,,120,NAGLE AVE,,NEW YORK,NY,10040,646-918-6111,Manhattan,1,112,10,1064181,1021740085,MN35,285,,-73.92668419816236,40.8608995930708,"(40.8608995930708, -73.92668419816236)"
2055751-2-DCA,Business,12/31/2022,Active,07/14/2017,Tobacco Retail Dealer,"POWER TECH GAS, INC.","POWER TECH GAS, INC.",1,CORTELYOU RD,,BROOKLYN,NY,11218,347-533-7898,Brooklyn,3,312,39,3125934,3053690053,BK41,486,,-73.97944435708268,40.63783905796348,"(40.63783905796348, -73.97944435708268)"
2091603-2-DCA,Business,12/31/2022,Active,10/22/2019,Tobacco Retail Dealer,WALTON NY DELI GROCERY INC,,901,WALTON AVE,,BRONX,NY,10452,646-251-0255,Bronx,2,204,08,2002925,2024760091,,,,-73.92361654340769,40.82800228039951,"(40.82800228039951, -73.92361654340769)"
2089835-2-DCA,Business,12/31/2022,Active,08/21/2019,Tobacco Retail Dealer,D&Y 46 CORP,,146,W 46TH ST,,NEW YORK,NY,10036,2129381333,Manhattan,1,105,04,1022650,1009980054,MN17,119,,-73.98359802521718,40.757947967780204,"(40.757947967780204, -73.98359802521718)"
2095840-1-DCA,Business,12/31/2021,Active,06/19/2020,Tobacco Retail Dealer,BIONIC BAGELS & DELI INC,,3741,NOSTRAND AVE,,BROOKLYN,NY,11235,7186483794,Brooklyn,3,315,48,3343957,3074220061,,,,-73.94036600099139,40.59260495489115,"(40.59260495489115, -73.94036600099139)"
2095837-1-DCA,Business,12/31/2021,Active,06/18/2020,Tobacco Retail Dealer,LA ESQUINA FOOD CORP,,206,HOYT ST,,BROOKLYN,NY,11217,7188555023,Brooklyn,3,306,33,3006359,3003970037,,,,-73.98954019309954,40.68399937466555,"(40.68399937466555, -73.98954019309954)"
2095836-1-DCA,Business,12/31/2021,Active,06/18/2020,Tobacco Retail Dealer,SOLER BROTHERS DELI GROCERY CORP,SOLER BROTHERS DELI GROCERY CORP,2015,1ST AVE,,NEW YORK,NY,10029,6468610534,Manhattan,1,111,08,1052687,1016750029,,,,-73.94113336305308,40.78817562887311,"(40.78817562887311, -73.94113336305308)"
2096335-1-DCA,Business,12/31/2021,Active,09/02/2020,Tobacco Retail Dealer,NEVINS FOOD MART INC,,26,NEVINS ST,,BROOKLYN,NY,11217,347-702-0973,Brooklyn,3,302,33,3000471,3001610053,,,,-73.98130748869406,40.68810176478277,"(40.68810176478277, -73.98130748869406)"
2066102-1-DCA,Business,12/31/2021,Active,02/14/2018,Tobacco Retail Dealer,J'S SMOKE SHOP CORP,,436,W 238TH ST,,BRONX,NY,10463,718-249-9689,Bronx,2,208,11,2083977,2057702001,BX29,295,,-73.9044962926382,40.887155571856404,"(40.887155571856404, -73.9044962926382)"
1318353-DCA,Business,12/31/2021,Active,05/14/2009,Tobacco Retail Dealer,"LANTIGUA, HUMBERTO",H.L. GROCERY,1293,BUSHWICK AVE,,BROOKLYN,NY,11207,347-549-0190,Brooklyn,3,304,37,3079002,3034150010,BK78,401,,-73.91301903490402,40.68659372315325,"(40.68659372315325, -73.91301903490402)"
2066548-1-DCA,Business,12/31/2021,Active,02/22/2018,Tobacco Retail Dealer,MIKE CONVENIENCE CORP,,380,E 168TH ST,,BRONX,NY,10456,347-820-5555,Bronx,2,204,16,2002085,2024260062,BX14,17701,,-73.91038544422553,40.83252153713561,"(40.83252153713561, -73.91038544422553)"
2066624-1-DCA,Business,12/31/2021,Active,02/23/2018,Tobacco Retail Dealer,LES GOURMET DELI CORP,,207,HENRY ST,,NEW YORK,NY,10002,347-645-9022,Manhattan,1,103,01,1003694,1002850015,MN28,6,,-73.98729547930218,40.71362616096571,"(40.71362616096571, -73.98729547930218)"
2076764-1-DCA,Business,12/31/2021,Active,08/07/2018,Tobacco Retail Dealer,JHOAN & BROTHER DELI GROCERY CORP,,759,DEKALB AVE,,BROOKLYN,NY,11216,3473183670,Brooklyn,3,303,36,3049501,3017750046,BK75,261,,-73.94622344915649,40.691977312521956,"(40.691977312521956, -73.94622344915649)"
1304927-DCA,Business,12/31/2021,Active,11/25/2008,Tobacco Retail Dealer,ALANTERI DELI CORP.,,719,FULTON ST,,BROOKLYN,NY,11217,929-355-1763,Brooklyn,3,302,35,3058733,3020970077,BK68,33,,-73.97672119943634,40.68724455995625,"(40.68724455995625, -73.97672119943634)"
2091354-2-DCA,Business,12/31/2022,Active,10/11/2019,Tobacco Retail Dealer,PRAMUKH 7924 INC,E SMOKE & COVENIENCE,7924,PARSONS BLVD,,FLUSHING,NY,11366,718-969-6735,Queens,4,408,24,4147723,4068170020,QN37,77904,,-73.80926047167831,40.720638177898635,"(40.720638177898635, -73.80926047167831)"
2081178-1-DCA,Business,12/31/2021,Active,01/07/2019,Tobacco Retail Dealer,ARABICA MINIMARKET INC,,624,BRADFORD ST,,BROOKLYN,NY,11207,347-240-6228,Brooklyn,3,305,42,,,BK85,1128,,-73.88982920754633,40.663424408607966,"(40.663424408607966, -73.88982920754633)"
2066416-1-DCA,Business,12/31/2021,Active,02/21/2018,Tobacco Retail Dealer,717 FAR ROCKAWAY DISCOUNT CORP.,,717,BEACH 20TH ST,,FAR ROCKAWAY,NY,11691,347-606-0002,Queens,4,414,31,4437271,4157500033,QN15,100802,,-73.75342827186229,40.60202310253841,"(40.60202310253841, -73.75342827186229)"
1210637-DCA,Business,12/31/2021,Active,09/21/2005,Tobacco Retail Dealer,"ADNADER, INC.",,218,SAINT NICHOLAS AVE,,NEW YORK,NY,10027,212-665-4542,Manhattan,1,110,09,1058485,1019260061,MN11,220,,-73.95288512746822,40.80742157743987,"(40.80742157743987, -73.95288512746822)"
2036987-1-DCA,Business,12/31/2021,Active,05/03/2016,Tobacco Retail Dealer,SALEHA D SHEIKH,AMAZING SMOKE SHOP NO. 1,208A,COLUMBUS AVE,,NEW YORK,NY,10023,718-427-6556,Manhattan,1,107,06,1029648,1011410032,MN14,153,,-73.97998307193598,40.775796446937335,"(40.775796446937335, -73.97998307193598)"
2068789-1-DCA,Business,12/31/2021,Active,04/03/2018,Tobacco Retail Dealer,URBAN GOURMET DELI CORP,,1917,7TH AVE,,NEW YORK,NY,10026,347-249-2550,Manhattan,1,110,09,1055057,1018250063,MN11,218,,-73.95255583292985,40.80316437386991,"(40.80316437386991, -73.95255583292985)"
2012641-1-DCA,Business,12/31/2021,Active,08/28/2014,Tobacco Retail Dealer,106 FAMILY DELI & GROCERY INC,FAMILY 106 ST,318,E 106TH ST,,NEW YORK,NY,10029,646-309-9490,Manhattan,1,111,08,1052772,1016770041,MN33,170,,-73.94151435208154,40.79022613780303,"(40.79022613780303, -73.94151435208154)"
2078542-1-DCA,Business,12/31/2021,Active,09/26/2018,Tobacco Retail Dealer,"MRG LAGUARDIA, LLC",DISTRICT MARKET,1,MAIN TERMINAL,"LAGUARDIA AIRPORT CENTRAL TERMINAL B, SPACE CB2L-101A",FLUSHING,NY,11371,702-35-5233,Queens,4,,,,,,,,,,
2006300-1403-DCA,Business,12/31/2021,Active,04/15/2014,Tobacco Retail Dealer,HOLA DELICIOUS MINI MARKET CORP,,716,KNICKERBOCKER AVE,,BROOKLYN,NY,11221,718-483-9984,Brooklyn,3,304,37,3077994,3033910028,BK77,437,,-73.91025042936401,40.69418912358053,"(40.69418912358053, -73.91025042936401)"
2009535-2027-DCA,Business,12/31/2021,Active,06/12/2014,Tobacco Retail Dealer,J.A.M.W. DELI & GROCERY INC,HILL TOP DELI,1253,CASTLE HILL AVE,,BRONX,NY,10462,7182391100,Bronx,2,209,18,2026570,2038130042,BX59,92,,-73.85134437015763,40.83316868419078,"(40.83316868419078, -73.85134437015763)"
1170007-DCA,Business,12/31/2021,Active,06/08/2004,Tobacco Retail Dealer,BLUE MOON DELI & GROCERY INC.,,1773,1ST AVE,,NEW YORK,NY,10128,212-369-5521,Manhattan,1,108,05,1050219,1015540028,MN32,154,,-73.94675497473918,40.780484873225284,"(40.780484873225284, -73.94675497473918)"
1462406-DCA,Business,12/31/2022,Active,04/16/2013,Tobacco Retail Dealer,RALPH & NASH DELI CORP.,,352,W 116TH ST,,NEW YORK,NY,10026,212-666-4508,Manhattan,1,110,09,1055878,1018490038,MN11,20102,,-73.95706962029456,40.80512587719738,"(40.80512587719738, -73.95706962029456)"
2045698-1-DCA,Business,12/31/2021,Active,11/18/2016,Tobacco Retail Dealer,G.O.D. FIRST DELI CORP.,,6658,MYRTLE AVE,,GLENDALE,NY,11385,917-509-0515,Queens,4,405,30,4090234,4037000028,QN19,629,,-73.88639421694677,40.701474623131446,"(40.701474623131446, -73.88639421694677)"
2034526-1-DCA,Business,12/31/2021,Active,03/16/2016,Tobacco Retail Dealer,GOOD FRIENDSHIP DELI & TOBACCO CORP,,3650,WHITE PLAINS RD,,BRONX,NY,10467,,Bronx,2,212,12,2095077,2046620006,BX44,380,,-73.86465518181606,40.88032262105956,"(40.88032262105956, -73.86465518181606)"
1441687-DCA,Business,12/31/2021,Active,08/20/2012,Tobacco Retail Dealer,BEST MARKET & DELI INC,,8477,PARSONS BLVD,,JAMAICA,NY,11432,718-526-8988,Queens,4,408,24,4209321,4097820001,QN35,450,,-73.8064782815448,40.712198865668846,"(40.712198865668846, -73.8064782815448)"
2043686-1-DCA,Business,12/31/2021,Active,09/14/2016,Tobacco Retail Dealer,"MCMICKEL, GERALDINE",McMickel Grocery Store,1169,BEDFORD AVE,,BROOKLYN,NY,11216,718-789-2364,Brooklyn,3,303,36,3051836,3018270009,BK75,245,,-73.9539101919457,40.68340872794345,"(40.68340872794345, -73.9539101919457)"
1247397-DCA,Business,12/31/2021,Active,01/30/2007,Tobacco Retail Dealer,"MASHALLAH DELI, CORP.",,2115,SURF AVE,,BROOKLYN,NY,11224,718-265-1667,Brooklyn,3,313,47,3189552,3070580042,BK21,326,,-73.98789428510025,40.574528803061824,"(40.574528803061824, -73.98789428510025)"
1135259-DCA,Business,12/31/2021,Active,04/02/2003,Tobacco Retail Dealer,ST. NICK'S 1633 FOOD CENTER CORP.,,1633,SAINT NICHOLAS AVE,,NEW YORK,NY,10040,212-927-5371,Manhattan,1,112,10,1064028,1021690029,MN35,279,,-73.92889836727895,40.855946793524375,"(40.855946793524375, -73.92889836727895)"
1151403-DCA,Business,12/31/2021,Active,09/11/2003,Tobacco Retail Dealer,"MARMOLEJOS, IGNACIO",LA VEGA GROCERY,2772,FULTON ST,,BROOKLYN,NY,11207,718-277-0932,Brooklyn,3,305,37,3087748,3039460014,BK82,1198,,-73.89226762893941,40.67793561653165,"(40.67793561653165, -73.89226762893941)"
2017079-1-DCA,Business,12/31/2021,Active,01/06/2015,Tobacco Retail Dealer,PINK BLUE MALL INC.,VARIETY GIFT AND SMOKE SHOP,1364,LEXINGTON AVE,,NEW YORK,NY,10128,212-831-8634,Manhattan,1,108,04,1048253,1015190016,MN40,14802,,-73.95362153802326,40.78220879035021,"(40.78220879035021, -73.95362153802326)"
1232581-DCA,Business,12/31/2021,Active,07/07/2006,Tobacco Retail Dealer,"RODRIGUEZ, YESENIA A & MARMOL, WILLIAM R",QUISQUEYA GROCERY,120,GRATTAN ST,,BROOKLYN,NY,11237,718-456-5962,Brooklyn,3,301,34,3070700,3030100007,BK77,453,,-73.92814554699231,40.7062237678489,"(40.7062237678489, -73.92814554699231)"
1378319-DCA,Business,12/31/2021,Active,12/06/2010,Tobacco Retail Dealer,KING 4TH AVE DELI CORP.,,5923,4TH AVE,,BROOKLYN,NY,11220,7184397164,Brooklyn,3,307,38,3016259,3008630001,BK32,74,,-74.0179947627518,40.64124576684863,"(40.64124576684863, -74.0179947627518)"
2066433-1-DCA,Business,12/31/2021,Active,02/21/2018,Tobacco Retail Dealer,MANHATTAN AVE DELI & GROCERY INC,,437,MANHATTAN AVE,,NEW YORK,NY,10026,646-657-0693,Manhattan,1,110,09,1059094,1019450011,MN11,257,,-73.95571410626114,40.8065663449235,"(40.8065663449235, -73.95571410626114)"
1358137-DCA,Business,12/31/2021,Active,06/10/2010,Tobacco Retail Dealer,4 GOLD STAR GOURMET DELI CORP.,,3043,AVENUE V,,BROOKLYN,NY,11229,718-769-0401,Brooklyn,3,315,46,3200479,3073670036,BK17,570,,-73.93678826764156,40.59882275756235,"(40.59882275756235, -73.93678826764156)"
2087783-2-DCA,Business,12/31/2022,Active,06/28/2019,Tobacco Retail Dealer,MIDDLE VILLAGE DELI INC,,6676,69TH ST,,MIDDLE VILLAGE,NY,11379,929-4215941,Queens,4,405,30,4518608,4027900032,QN21,65702,,-73.88656978931846,40.71274755066413,"(40.71274755066413, -73.88656978931846)"
2066234-1-DCA,Business,12/31/2021,Active,02/16/2018,Tobacco Retail Dealer,MUSHEER DELI AND GROCERY CORP.,,1653,SAINT NICHOLAS AVE,,NEW YORK,NY,10040,212-795-0579,Manhattan,1,112,10,1064072,1021700251,MN35,279,,-73.928264701759,40.856926259858994,"(40.856926259858994, -73.928264701759)"
1450211-DCA,Business,12/31/2021,Active,11/15/2012,Tobacco Retail Dealer,ARSHAK CORP.,,262,NEPTUNE AVE,,BROOKLYN,NY,11235,718-769-8891,Brooklyn,3,313,48,3244449,3086650558,BK19,364,,-73.96296275912128,40.581308624370116,"(40.581308624370116, -73.96296275912128)"
1376887-DCA,Business,12/31/2021,Active,11/15/2010,Tobacco Retail Dealer,"CASTILLO PERALTA, NELSON D",EL CAPITAN DELI GROCERY,518,BEACH 72ND ST,,ARVERNE,NY,11692,646-644-9820,Queens,4,414,31,4303062,4160500001,QN12,954,,-73.80089783811499,40.595137849489916,"(40.595137849489916, -73.80089783811499)"
1068748-DCA,Business,12/31/2022,Active,12/28/2000,Tobacco Retail Dealer,"PINKY QUICK STOP, INC.",,2934,WILKINSON AVE,,BRONX,NY,10461,718-597-7813,Bronx,2,210,13,2047384,2042350034,BX10,300,,-73.83079333229321,40.85166443060053,"(40.85166443060053, -73.83079333229321)"
1075631-DCA,Business,12/31/2021,Active,04/26/2006,Tobacco Retail Dealer,VILLAGE DELI GROCERY CORP.,,21202,HILLSIDE AVE,,QUEENS VLG,NY,11427,718-506-3153,Queens,4,413,23,4228578,4106690087,QN34,548,,-73.7539410000993,40.724773908705956,"(40.724773908705956, -73.7539410000993)"
1452929-DCA,Business,12/31/2021,Active,12/28/2012,Tobacco Retail Dealer,MIKE FAMILY DELI GROCERY CORP.,,635,COURTLANDT AVE,,BRONX,NY,10451,718-450-8470,Bronx,2,201,17,2001875,2024110040,BX34,67,,-73.91864885492987,40.81854333032511,"(40.81854333032511, -73.91864885492987)"
2066489-1-DCA,Business,12/31/2021,Active,02/22/2018,Tobacco Retail Dealer,H & H DELI CORP,,216,UTICA AVE,,BROOKLYN,NY,11213,347-217-5526,Brooklyn,3,308,36,3036819,3013780045,BK61,351,,-73.93089040877486,40.67134215344243,"(40.67134215344243, -73.93089040877486)"
2010920-1-DCA,Business,12/31/2021,Active,07/18/2014,Tobacco Retail Dealer,SEVEN DAY CONVENIENCE INC,,1924,KINGS HWY,,BROOKLYN,NY,11229,347-462-1029,Brooklyn,3,315,48,3182516,3067820020,BK44,550,,-73.95432076967755,40.61038391225253,"(40.61038391225253, -73.95432076967755)"
2066819-1-DCA,Business,12/31/2021,Active,02/23/2018,Tobacco Retail Dealer,A&D MINI MART LLC,,1107,1ST AVE,,NEW YORK,NY,10065,917-886-0511,Manhattan,1,108,05,1044209,1014350028,MN31,110,,-73.96123504999397,40.76064069671804,"(40.76064069671804, -73.96123504999397)"
1285461-DCA,Business,12/31/2021,Active,05/14/2008,Tobacco Retail Dealer,JPS PETROLEUM INC.,,4090,BOSTON RD,,BRONX,NY,10475,718-324-8838,Bronx,2,212,12,2095194,2052800001,BX13,46202,,-73.82837743599148,40.88578572025922,"(40.88578572025922, -73.82837743599148)"
1217213-DCA,Business,12/31/2021,Active,01/09/2006,Tobacco Retail Dealer,3 IN 1 KITCHEN AMK CORP.,,4902,FORT HAMILTON PKWY,,BROOKLYN,NY,11219,718-437-7744,Brooklyn,3,312,44,3137602,3056390010,BK88,114,,-73.99778408273765,40.63830199802908,"(40.63830199802908, -73.99778408273765)"
1275067-DCA,Business,12/31/2021,Active,12/31/2007,Tobacco Retail Dealer,"DON JUAN DELI & GROCERY, INC.",,110,FORSYTH ST,,NEW YORK,NY,10002,212-925-7370,Manhattan,1,103,01,1005583,1004190040,MN27,18,,-73.9925469493258,40.718970669398196,"(40.718970669398196, -73.9925469493258)"
2093379-2-DCA,Business,12/31/2022,Active,01/06/2020,Tobacco Retail Dealer,ALFADHI GROCERY DELI INC.,,1932,3RD AVE,,NEW YORK,NY,10029,646-624-9199,Manhattan,1,111,08,1052038,1016340037,,,,-73.94447428556941,40.791863461696494,"(40.791863461696494, -73.94447428556941)"
2004366-1095-DCA,Business,12/31/2021,Active,03/06/2014,Tobacco Retail Dealer,"7-ELEVEN, INC.",7 ELEVEN STORE #37064H,22401,MERRICK BLVD,,Springfield Gardens,NY,11413,212-368-5659,Queens,4,413,31,4279311,4129630308,QN66,630,,-73.7454795120266,40.677850014635176,"(40.677850014635176, -73.7454795120266)"
2015633-1-DCA,Business,12/31/2021,Active,11/18/2014,Tobacco Retail Dealer,GEORGE'S DELI INC,,3619,28TH AVE,,ASTORIA,NY,11103,718-777-3200,Queens,4,401,22,4010128,4006520084,QN70,6502,,-73.9158713000302,40.766509465013876,"(40.766509465013876, -73.9158713000302)"
1420431-DCA,Business,12/31/2021,Active,03/01/2012,Tobacco Retail Dealer,IZZY MANHATTAN DELI CORP,,183,NASSAU AVE,,BROOKLYN,NY,11222,3477392303,Brooklyn,3,301,33,3066327,3026520026,BK76,571,,-73.94590063696327,40.72540014906873,"(40.72540014906873, -73.94590063696327)"
2025708-2-DCA,Business,12/31/2022,Active,07/15/2015,Tobacco Retail Dealer,GOLDEN GOURMET CORP.,,1501A,SHEEPSHEAD BAY RD,,BROOKLYN,NY,11235,917-865-2782,Brooklyn,3,315,48,3388692,3074600001,BK17,590,,-73.9541960866676,40.58738519992253,"(40.58738519992253, -73.9541960866676)"
2035550-1-DCA,Business,12/31/2021,Active,04/05/2016,Tobacco Retail Dealer,"RANDALL PETROLEUM, LLC",AMERICO,1264,RANDALL AVE,,BRONX,NY,10474,9733453900,Bronx,2,202,17,2006814,2027680295,BX27,93,,-73.8874447014441,40.81197092931077,"(40.81197092931077, -73.8874447014441)"
2047402-1-DCA,Business,12/31/2021,Active,01/17/2017,Tobacco Retail Dealer,NY DELI AND MINI MARKET CORP,,684,HEGEMAN AVE,,BROOKLYN,NY,11207,,Brooklyn,3,305,42,3097445,3043290001,BK82,1104,,-73.88667760318285,40.662062680381425,"(40.662062680381425, -73.88667760318285)"
2066609-1-DCA,Business,12/31/2021,Active,02/23/2018,Tobacco Retail Dealer,LINDEN CANDY & TOBACCO CORP,,347,LINDEN ST,,BROOKLYN,NY,11237,347-500-9002,Brooklyn,3,304,37,3076192,3033280047,BK77,441,,-73.91332664641973,40.699598675882946,"(40.699598675882946, -73.91332664641973)"
2040678-1-DCA,Business,12/31/2021,Active,07/18/2016,Tobacco Retail Dealer,A & D GRILL & DELI CORP,,6657,60TH PL,,RIDGEWOOD,NY,11385,718-381-3434,Queens,4,405,30,4084907,4035290001,QN20,587,,-73.9003475842677,40.70651047264671,"(40.70651047264671, -73.9003475842677)"
2094099-2-DCA,Business,12/31/2022,Active,01/30/2020,Tobacco Retail Dealer,GUANG INC,MOBIL MART,16501,HILLSIDE AVE,,JAMAICA,NY,11432,7182917010,Queens,4,408,24,4438689,4098370010,,,,-73.79770413369963,40.709170024072186,"(40.709170024072186, -73.79770413369963)"
2066254-1-DCA,Business,12/31/2021,Active,02/16/2018,Tobacco Retail Dealer,MOHAMED ALAWDI,116 DELI,11669,SUTPHIN BLVD,,JAMAICA,NY,11434,718-848-8588,Queens,4,412,28,4264791,4122030176,QN76,272,,-73.79219435131587,40.68087255043116,"(40.68087255043116, -73.79219435131587)"
2043752-1-DCA,Business,12/31/2021,Active,09/15/2016,Tobacco Retail Dealer,SUNRISE GROCERY CORP,,6005,5TH AVE,,BROOKLYN,NY,11220,646-966-2245,Brooklyn,3,307,38,3143470,3057830008,BK32,122,,-74.01626473312574,40.63937133577816,"(40.63937133577816, -74.01626473312574)"
1450527-DCA,Business,12/31/2021,Active,02/13/2013,Tobacco Retail Dealer,7 ELEVEN INC,,1163,UTICA AVE,,BROOKLYN,NY,11203,732-727-5030,Brooklyn,3,317,45,3398570,3047710001,BK96,846,,-73.92954220452268,40.64401429257806,"(40.64401429257806, -73.92954220452268)"
2065354-1-DCA,Business,12/31/2021,Active,01/25/2018,Tobacco Retail Dealer,J HOOKAH & DELI GROCERY CORP,,397,E 167TH ST,,BRONX,NY,10456,3472697714,Bronx,2,204,16,2002088,2024260082,BX14,17701,,-73.9106190507691,40.83078431434988,"(40.83078431434988, -73.9106190507691)"
2035761-1-DCA,Business,12/31/2021,Active,04/08/2016,Tobacco Retail Dealer,LOS VECINOS DELI & GROCERY CORP,,2766,PITKIN AVE,,BROOKLYN,NY,11208,718-484-8606,Brooklyn,3,305,42,3095140,3042350017,BK82,1200,,-73.86993382182551,40.67568103331678,"(40.67568103331678, -73.86993382182551)"
2066440-1-DCA,Business,12/31/2021,Active,02/21/2018,Tobacco Retail Dealer,MOHSIN DELI GROCERY CORP,,1135,HOE AVE,,BRONX,NY,10459,845-978-8204,Bronx,2,203,17,2006069,2027450046,BX35,125,,-73.8909131494079,40.82713884338169,"(40.82713884338169, -73.8909131494079)"
1421497-DCA,Business,12/31/2021,Active,03/08/2012,Tobacco Retail Dealer,"1158 GROCERY & DELI, INC.",,1158,SAINT LAWRENCE AVE,,BRONX,NY,10472,347-851-4464,Bronx,2,209,18,2024266,2037530038,BX55,70,,-73.86661351067877,40.82888363971139,"(40.82888363971139, -73.86661351067877)"
2015547-1-DCA,Business,12/31/2021,Active,11/14/2014,Tobacco Retail Dealer,MOHAMMED SALIM SHEIKH & SALEHA DADABHAI SHEIKH,AMAZING STORE & SMOKE SHOP # 4,1728,2ND AVE,,NEW YORK,NY,10128,7184270078,Manhattan,1,108,05,1050138,1015520050,MN32,154,,-73.94998680691845,40.780277721240296,"(40.780277721240296, -73.94998680691845)"
2043796-1-DCA,Business,12/31/2021,Active,09/16/2016,Tobacco Retail Dealer,GREENLAND DELI GROCERY CORP,,418,LENOX AVE,,NEW YORK,NY,10037,646-642-7736,Manhattan,1,110,09,1053811,1017280069,MN03,208,,-73.94277812052934,40.81146821555538,"(40.81146821555538, -73.94277812052934)"
2097733-2-DCA,Business,12/31/2022,Active,02/16/2021,Tobacco Retail Dealer,MONROE F & H GOURMET DELI CORP,,57,MARKET ST,,NEW YORK,NY,10002,212-964-6286,Manhattan,1,103,01,1077591,1002530001,,,,-73.99425754331311,40.711436398804636,"(40.711436398804636, -73.99425754331311)"
2075491-1-DCA,Business,12/31/2021,Active,07/12/2018,Tobacco Retail Dealer,JULIE & C INC.,,28,W 32ND ST,,NEW YORK,NY,10001,917-513-1231,Manhattan,1,105,04,1015829,1008330060,MN17,76,,-73.98687754559424,40.74772969649986,"(40.74772969649986, -73.98687754559424)"
1361223-DCA,Business,12/31/2021,Active,07/06/2010,Tobacco Retail Dealer,CENTRE FINEST DELI INC.,,140,CENTRE ST,,NEW YORK,NY,10013,212-334-6511,Manhattan,1,101,01,1002364,1001980001,MN27,29,,-74.00058439607474,40.71720877334869,"(40.71720877334869, -74.00058439607474)"
2015936-1-DCA,Business,12/31/2021,Active,11/26/2014,Tobacco Retail Dealer,"R&R FOOD STORE, INC",,552,BEACH 25TH ST,,FAR ROCKAWAY,NY,11691,718-337-5050,Queens,4,414,31,4301034,4157650014,QN15,99801,,-73.7611872163912,40.59944564421436,"(40.59944564421436, -73.7611872163912)"
1134061-DCA,Business,12/31/2021,Active,03/18/2003,Tobacco Retail Dealer,641 SWAMISHREEJI INC.,,641,LEXINGTON AVE,,NEW YORK,NY,10022,212-421-6874,Manhattan,1,106,04,1036482,1013090023,MN19,100,,-73.97032147268172,40.75902948646616,"(40.75902948646616, -73.97032147268172)"
2054831-1-DCA,Business,12/31/2021,Active,06/22/2017,Tobacco Retail Dealer,80TH STREET DELI INC,,8014,5 AVENUE,,BROOKLYN,NY,11209,7182301192,Brooklyn,3,310,43,3151328,3059890048,BK31,138,,-74.02423716107516,40.625599328861334,"(40.625599328861334, -74.02423716107516)"
1354225-DCA,Business,12/31/2021,Active,05/18/2010,Tobacco Retail Dealer,STUTI INC,,1480,WILLIAMSBRIDGE RD,,BRONX,NY,10461,718-239-0841,Bronx,2,210,13,2044195,2040810001,BX37,200,,-73.84577943450562,40.84402769873903,"(40.84402769873903, -73.84577943450562)"
2066382-1-DCA,Business,12/31/2021,Active,02/21/2018,Tobacco Retail Dealer,JIB DELI & GROCERY CORP.,LA FAVORITA DELI GROCERY,3722,103RD ST,,CORONA,NY,11368,646-750-2210,Queens,4,403,21,4044226,4017680021,QN26,405,,-73.86423565742197,40.75283526500116,"(40.75283526500116, -73.86423565742197)"
1359751-DCA,Business,12/31/2021,Active,06/22/2010,Tobacco Retail Dealer,"SARH DELI GROCERY, INC.",,201,W 131ST ST,,NEW YORK,NY,10027,2123682745,Manhattan,1,110,09,1058711,1019370028,MN03,226,,-73.94598482563772,40.81293269939196,"(40.81293269939196, -73.94598482563772)"
1375095-DCA,Business,12/31/2021,Active,10/22/2010,Tobacco Retail Dealer,AFAL INC.,,302,E 50TH ST,,NEW YORK,NY,10022,2127550471,Manhattan,1,106,04,1080459,1013420051,MN19,98,,-73.9681397035026,40.754705930136474,"(40.754705930136474, -73.9681397035026)"
2066390-1-DCA,Business,12/31/2021,Active,02/21/2018,Tobacco Retail Dealer,WILTON AVE DELI CORP,,143,E 149TH ST,,BRONX,NY,10451,347-323-0527,Bronx,2,204,08,2001040,2023470001,BX63,63,,-73.9280962828117,40.81877193106099,"(40.81877193106099, -73.9280962828117)"
2080379-1-DCA,Business,12/31/2021,Active,12/03/2018,Tobacco Retail Dealer,VILLA TAPIA GROCERY NY CORP.,,128,NOSTRAND AVE,,BROOKLYN,NY,11205,7185220924,Brooklyn,3,303,33,3048490,3017370026,BK75,1237,,-73.95270059068271,40.69602869092592,"(40.69602869092592, -73.95270059068271)"
2013538-1-DCA,Business,12/31/2021,Active,09/17/2014,Tobacco Retail Dealer,GREEN APPLE GOURMET INC.,,1625,BROADWAY,,NEW YORK,NY,10019,212-767-0198,Manhattan,1,105,03,1024801,1010210043,MN17,125,,-73.98420726946924,40.76122253239912,"(40.76122253239912, -73.98420726946924)"
1284570-DCA,Business,12/31/2022,Active,05/07/2008,Tobacco Retail Dealer,"HWANG, YOUNG CHUL",S H STATIONERY,4295,MAIN ST,,FLUSHING,NY,11355,718-445-3747,Queens,4,407,20,4115881,4051360050,QN22,79702,,-73.82700947261984,40.752711265910484,"(40.752711265910484, -73.82700947261984)"
1114520-DCA,Business,12/31/2022,Active,07/08/2002,Tobacco Retail Dealer,"S & W SUPERMARKET, INC.",,4028,E TREMONT AVE,,BRONX,NY,10465,718-892-7666,Bronx,2,210,13,2080464,2055760102,BX52,132,,-73.81757202187643,40.81959696714487,"(40.81959696714487, -73.81757202187643)"
2095858-1-DCA,Business,12/31/2021,Active,06/23/2020,Tobacco Retail Dealer,LA MIA FOOD MARKET CORP,,2416,40TH AVE,,LONG ISLAND CITY,NY,11101,7187843884,Queens,4,401,26,4004920,4004070026,,,,-73.93851087335158,40.753782668986034,"(40.753782668986034, -73.93851087335158)"
2058386-2-DCA,Business,12/31/2022,Active,09/19/2017,Tobacco Retail Dealer,NY SMOKE N VAPE CORP,,1238,LEXINGTON AVE,,NEW YORK,NY,10028,347-369-2497,Manhattan,1,108,04,1047660,1015120056,MN40,140,,-73.95676944054875,40.777889800071954,"(40.777889800071954, -73.95676944054875)"
1042028-DCA,Business,12/31/2022,Active,03/12/2007,Tobacco Retail Dealer,"WILLIAMS, NEVILLE",WILLIAMS GROCERY & DELI,12606,LIBERTY AVE,,S RICHMOND HL,NY,11419,718-845-1328,Queens,4,410,28,4204645,4095800002,QN55,15802,,-73.81837427740874,40.68847597043586,"(40.68847597043586, -73.81837427740874)"
1462124-DCA,Business,12/31/2022,Active,04/15/2013,Tobacco Retail Dealer,CANA ARRIBA GROCERY STORE INC.,,1465,BRYANT AVE,,BRONX,NY,10460,718-893-2825,Bronx,2,203,17,2010773,2029950042,BX75,157,,-73.88782284960784,40.83195285520763,"(40.83195285520763, -73.88782284960784)"
1329292-DCA,Business,12/31/2022,Active,08/14/2009,Tobacco Retail Dealer,"Y J ELMHURST GROCERY, INC.",,8939,ELMHURST AVE,,ELMHURST,NY,11373,718-606-8996,Queens,4,404,21,4311580,4015100019,QN29,271,,-73.87668647196591,40.74770286006853,"(40.74770286006853, -73.87668647196591)"
2056885-2-DCA,Business,12/31/2022,Active,08/10/2017,Tobacco Retail Dealer,EL REAL FOOD MARKET CORP,,306,IRVING AVE,,BROOKLYN,NY,11237,3473841354,Brooklyn,3,304,37,3076150,3033260042,BK77,433,,-73.91421110088282,40.69891589131362,"(40.69891589131362, -73.91421110088282)"
2056723-2-DCA,Business,12/31/2022,Active,08/07/2017,Tobacco Retail Dealer,129 GOURMET DELI & GROCERY CORP.,,129,E 45TH ST,,NEW YORK,NY,10017,2126974736,Manhattan,1,106,04,1036189,1013000023,MN19,92,,-73.97434123864821,40.753247273448416,"(40.753247273448416, -73.97434123864821)"
1413608-DCA,Business,12/31/2022,Active,11/18/2011,Tobacco Retail Dealer,WHITE MOUNTAIN FARM INC.,,8406,20TH AVE,,BROOKLYN,NY,11214,718-266-6062,Brooklyn,3,311,47,3165355,3063330038,BK28,284,,-73.99716573267963,40.60566641673674,"(40.60566641673674, -73.99716573267963)"
2047498-2-DCA,Business,12/31/2022,Active,01/19/2017,Tobacco Retail Dealer,VEER KRUPA GROCERY CORP.,,1806,KINGS HWY,,BROOKLYN,NY,11229,914-574-1385,Brooklyn,3,315,48,3182496,3067810066,BK44,552,,-73.95541591764957,40.60999732617304,"(40.60999732617304, -73.95541591764957)"
2082276-2-DCA,Business,12/31/2022,Active,02/14/2019,Tobacco Retail Dealer,111 DELI & GRILL CORP,,11052,SUTPHIN BLVD,,JAMAICA,NY,11435,718-536-0303,Queens,4,412,28,4258422,4119520066,QN01,196,,-73.7959190197235,40.68903395525507,"(40.68903395525507, -73.7959190197235)"
2050345-2-DCA,Business,12/31/2022,Active,03/30/2017,Tobacco Retail Dealer,A & S FOREST FOOD CORP.,,607,FOREST AVE,,STATEN ISLAND,NY,10310,718-556-0333,Staten Island,5,501,49,5004328,5001550153,SI35,105,,-74.10944555319556,40.63002105516206,"(40.63002105516206, -74.10944555319556)"
2081958-2-DCA,Business,12/31/2022,Active,02/05/2019,Tobacco Retail Dealer,PARATPAR INC,,3202,AMPERE AVE,,BRONX,NY,10465,718-931-1724,Bronx,2,210,13,2075869,2054120143,BX10,27401,,-73.82096154656575,40.84623702211299,"(40.84623702211299, -73.82096154656575)"
2031588-2-DCA,Business,12/31/2022,Active,12/22/2015,Tobacco Retail Dealer,NASSAU GIFT SHOP INC,,65,NASSAU ST,,NEW YORK,NY,10038,212-964-6462,Manhattan,1,101,01,1001106,1000657501,MN25,1502,,-74.00860980849839,40.7093502004568,"(40.7093502004568, -74.00860980849839)"
2018953-2-DCA,Business,12/31/2022,Active,03/03/2015,Tobacco Retail Dealer,"CARROLL GARDEN DELI GROCERY, INC",,245,COLUMBIA ST,,BROOKLYN,NY,11231,718-875-6276,Brooklyn,3,306,39,3338860,3003427501,BK33,51,,-74.00327746938427,40.68381864844352,"(40.68381864844352, -74.00327746938427)"
1405396-DCA,Business,12/31/2022,Active,08/26/2011,Tobacco Retail Dealer,171 MADISON AVENUE RETAIL INC.,7-ELEVEN STORE #35057A,171,MADISON AVE,,NEW YORK,NY,10016,732-433-5700,Manhattan,1,105,02,1017082,1008630027,MN17,74,,-73.98331554481857,40.74725988357487,"(40.74725988357487, -73.98331554481857)"
1042160-DCA,Business,12/31/2022,Active,12/06/2000,Tobacco Retail Dealer,SHRIJI CORP.,,5939,QUEENS BLVD,,WOODSIDE,NY,11377,718-651-7641,Queens,4,402,26,4031401,4013340071,QN63,249,,-73.90511635054625,40.741587035183095,"(40.741587035183095, -73.90511635054625)"
1227936-DCA,Business,12/31/2022,Active,05/23/2006,Tobacco Retail Dealer,QUEEN BEE FOOD STORE INC.,,4382,162ND ST,,FLUSHING,NY,11358,718-461-3434,Queens,4,407,20,4122399,4054190068,QN52,1191,,-73.80428333443292,40.75827144405556,"(40.75827144405556, -73.80428333443292)"
2047373-2-DCA,Business,12/31/2022,Active,01/13/2017,Tobacco Retail Dealer,ASHLEY & J FOOD CORP.,,1000,E GUN HILL RD,,BRONX,NY,10469,718-654-7296,Bronx,2,212,12,2057201,2046370030,BX44,370,,-73.85794467597955,40.87466872036941,"(40.87466872036941, -73.85794467597955)"
2025710-2-DCA,Business,12/31/2022,Active,07/15/2015,Tobacco Retail Dealer,CHOITHRAMS INC,,111A,NASSAU ST,,NEW YORK,NY,10038,212-444-8388,Manhattan,1,101,01,1089790,1000900017,MN25,1501,,-74.0070733993916,40.71081051889842,"(40.71081051889842, -74.0070733993916)"
2048573-2-DCA,Business,12/31/2022,Active,02/21/2017,Tobacco Retail Dealer,MAHANT KRUPA CORPORATION,,10727,ATLANTIC AVE,,RICHMOND HILL,NY,11418,718-441-1712,Queens,4,409,32,4195406,4093140031,QN54,12601,,-73.8381781521023,40.69118991226279,"(40.69118991226279, -73.8381781521023)"
2093311-2-DCA,Business,12/31/2022,Active,01/02/2020,Tobacco Retail Dealer,TC AMBOY CORP,,7299,AMBOY RD,,STATEN ISLAND,NY,10307,7189671963,Staten Island,5,503,51,5089139,5080430001,,,,-74.24079990802743,40.511398695151605,"(40.511398695151605, -74.24079990802743)"
2056781-2-DCA,Business,12/31/2022,Active,08/08/2017,Tobacco Retail Dealer,MD A HOSSAIN,MD A Hossain News Stand,N/W/C,EAST   79 STREET,1 AVENUE,NEW YORK,NY,10075,716-333-5205,Manhattan,1,108,05,,,,,,-73.9526861016243,40.77234382522236,"(40.77234382522236, -73.9526861016243)"
2061409-2-DCA,Business,12/31/2022,Active,11/22/2017,Tobacco Retail Dealer,HARUN U RASHID,,N/E/C,WEST   23 STREET,8 AVENUE,NEW YORK,NY,10011,917-600-1910,Manhattan,1,104,03,,,,,,-73.998487869284,40.74529309693587,"(40.74529309693587, -73.998487869284)"
1410757-DCA,Business,12/31/2022,Active,10/12/2011,Tobacco Retail Dealer,FABULOUS BOUTIQUE INC.,,121,MACDOUGAL ST,,NEW YORK,NY,10012,212-533-3310,Manhattan,1,102,01,1008746,1005430021,MN23,65,,-74.00025256639387,40.730290289869906,"(40.730290289869906, -74.00025256639387)"
2095849-1-DCA,Business,12/31/2021,Active,06/22/2020,Tobacco Retail Dealer,JJ TOMPKINS FOOD CORP,,920,MYRTLE AVE,,BROOKLYN,NY,11206,7184527922,Brooklyn,3,303,36,3048667,3017560023,,,,-73.9453440414906,40.695814085286024,"(40.695814085286024, -73.9453440414906)"
1413152-DCA,Business,12/31/2022,Active,11/15/2011,Tobacco Retail Dealer,LOTTO CANDY STORE CORP.,,4192,BOWNE ST,,FLUSHING,NY,11355,718-460-0401,Queens,4,407,20,4117042,4051810048,QN22,857,,-73.82239869851911,40.75740326344447,"(40.75740326344447, -73.82239869851911)"
2027010-2-DCA,Business,12/31/2022,Active,08/12/2015,Tobacco Retail Dealer,NYC GREEN VALLEY GROCERY INC,,74,E 116TH ST,,NEW YORK,NY,10029,646-249-2959,Manhattan,1,111,08,1081339,1016210041,MN34,184,,-73.94402354896373,40.79963082772893,"(40.79963082772893, -73.94402354896373)"
2056593-2-DCA,Business,12/31/2022,Active,08/03/2017,Tobacco Retail Dealer,EDDY FOOD CENTER CORP.,,2108,AMSTERDAM AVE,,NEW YORK,NY,10032,2126432063,Manhattan,1,112,07,1062897,1021210039,MN36,24301,,-73.93865032790558,40.83750522009817,"(40.83750522009817, -73.93865032790558)"
2047970-2-DCA,Business,12/31/2022,Active,02/02/2017,Tobacco Retail Dealer,ALMAZEN CANDY & TOBACCO CORP.,,21617,LINDEN BLVD,,CAMBRIA HEIGHTS,NY,11411,3479555596,Queens,4,413,27,4244203,4113170002,QN33,598,,-73.7433036482574,40.696136412167526,"(40.696136412167526, -73.7433036482574)"
2060155-2-DCA,Business,12/31/2022,Active,11/01/2017,Tobacco Retail Dealer,ROCKY DELI & GRILL INC,,721,FULTON ST,,BROOKLYN,NY,11217,929-355-4281,Brooklyn,3,302,35,3335277,3020980093,BK68,33,,-73.97652651534315,40.68716766682428,"(40.68716766682428, -73.97652651534315)"
1339494-DCA,Business,12/31/2022,Active,11/23/2009,Tobacco Retail Dealer,JAI SAI CORP.,CONVENIENT FOOD MART,2,NEW DORP LN,,STATEN ISLAND,NY,10306,718-979-6500,Staten Island,5,502,50,5057251,5041910031,SI45,134,,-74.11968069562336,40.57574892416113,"(40.57574892416113, -74.11968069562336)"
2092255-2-DCA,Business,12/31/2022,Active,11/15/2019,Tobacco Retail Dealer,MI COMPADRE DELI GROCERY CORP.,,16,E 213TH ST,,BRONX,NY,10467,3473467533,Bronx,2,207,11,2017844,2033290058,,,,-73.87868860890869,40.88493832659279,"(40.88493832659279, -73.87868860890869)"
2085403-2-DCA,Business,12/31/2022,Active,05/02/2019,Tobacco Retail Dealer,VAPE RITE INC,,7322,3RD AVE,,BROOKLYN,NY,11209,9175171240,Brooklyn,3,310,43,3147824,3059170046,BK31,66,,-74.02732732419406,40.63263078613216,"(40.63263078613216, -74.02732732419406)"
2091381-2-DCA,Business,12/31/2022,Active,10/11/2019,Tobacco Retail Dealer,STANTON SMOKE & BEER INC,,100,STANTON ST,,NEW YORK,NY,10002,3473690989,Manhattan,1,103,01,1005410,1004120036,MN27,3001,,-73.98802996376898,40.72132254691939,"(40.72132254691939, -73.98802996376898)"
2092829-2-DCA,Business,12/31/2022,Active,12/09/2019,Tobacco Retail Dealer,LOS CANE DELI GROCERY CORP,,12,E 199TH ST,,BRONX,NY,10468,7187906138,Bronx,2,207,14,2017598,2033190083,,,,-73.88961702614729,40.87223588060372,"(40.87223588060372, -73.88961702614729)"
2001865-2-DCA,Business,12/31/2022,Active,12/23/2013,Tobacco Retail Dealer,H & A GAS AND CONVENIENCE INC,,4102,AVENUE H,,BROOKLYN,NY,11210,347-834-2769,Brooklyn,3,318,45,3214026,3077450040,BK58,726,,-73.93685742259771,40.63231476908511,"(40.63231476908511, -73.93685742259771)"
1045490-DCA,Business,12/31/2022,Active,12/05/2000,Tobacco Retail Dealer,"1001 FREEMAN GROCERY, INC.",,1001,FREEMAN ST,,BRONX,NY,10459,718-378-6730,Bronx,2,203,17,2010904,2030060067,BX75,123,,-73.88757795401901,40.82932317932185,"(40.82932317932185, -73.88757795401901)"
2059575-2-DCA,Business,12/31/2022,Active,10/18/2017,Tobacco Retail Dealer,"UNITED EXPRESS, CORP.",,237,AVENUE X,,BROOKLYN,NY,11223,7186769440,Brooklyn,3,315,47,3194405,3071730051,BK26,386,,-73.9740330580981,40.59013894055023,"(40.59013894055023, -73.9740330580981)"
1400482-DCA,Business,12/31/2022,Active,07/12/2011,Tobacco Retail Dealer,STOP II ORGANIC & GROCERY STORE CORP,,585,VANDERBILT AVE,,BROOKLYN,NY,11238,718-638-9608,Brooklyn,3,308,35,3027906,3011380011,BK64,203,,-73.96798427618465,40.68007037123687,"(40.68007037123687, -73.96798427618465)"
1068058-DCA,Business,12/31/2022,Active,12/14/2000,Tobacco Retail Dealer,"K & A PLUS OF NEW YORK, INC.",,7704,21ST AVE,,EAST ELMHURST,NY,11370,718-278-4658,Queens,4,401,22,4021463,4009730001,QN72,317,,-73.89265939034549,40.770524948631135,"(40.770524948631135, -73.89265939034549)"
2058590-2-DCA,Business,12/31/2022,Active,09/25/2017,Tobacco Retail Dealer,METRO GAS INC,,5002,METROPOLITAN AVE,,RIDGEWOOD,NY,11385,718-366-9401,Queens,4,405,34,4080422,4033750052,QN20,539,,-73.91680747252572,40.71355288612214,"(40.71355288612214, -73.91680747252572)"
1466158-DCA,Business,12/31/2022,Active,05/29/2013,Tobacco Retail Dealer,"SIKDER, KAUSHIK",,S/E/C,BOWERY,EAST    2 STREET,NEW YORK,,10012,347-744-8471,Manhattan,1,102,01,,,,,,-73.99206275224037,40.72564588916084,"(40.72564588916084, -73.99206275224037)"
2058261-2-DCA,Business,12/31/2022,Active,09/14/2017,Tobacco Retail Dealer,"406 DELI & GROCERY, INC",,406,PORT RICHMOND AVE,,STATEN ISLAND,NY,10302,3474582231,Staten Island,5,501,49,5025775,5010940042,SI28,213,,-74.13791446014427,40.63204353540847,"(40.63204353540847, -74.13791446014427)"
1249112-DCA,Business,12/31/2022,Active,02/28/2007,Tobacco Retail Dealer,AM & PM GROCERY INC.,,6223,FORT HAMILTON PKWY,,BROOKLYN,NY,11219,718-491-1513,Brooklyn,3,310,38,3141447,3057290047,BK30,212,,-74.00723437194316,40.631955843282284,"(40.631955843282284, -74.00723437194316)"
1301284-DCA,Business,12/31/2022,Active,10/03/2008,Tobacco Retail Dealer,"SHAHAB, FAHAD F",THIRD AVENUE MINI MARKET,9721,3RD AVE,,BROOKLYN,NY,11209,718-238-0804,Brooklyn,3,310,43,3155829,3061260003,BK31,5601,,-74.03427918284815,40.61555083500603,"(40.61555083500603, -74.03427918284815)"
1066180-DCA,Business,12/31/2022,Active,11/13/2000,Tobacco Retail Dealer,"AVENUE I SERVICE STATION, INC.",,1248,CONEY ISLAND AVE,,BROOKLYN,NY,11230,347-272-8646,Brooklyn,3,312,45,3170584,3065130044,BK43,456,,-73.96568590531058,40.62741106915692,"(40.62741106915692, -73.96568590531058)"
2055450-2-DCA,Business,12/31/2022,Active,07/07/2017,Tobacco Retail Dealer,KARMA GAS INC,,5205,HYLAN BLVD,,STATEN ISLAND,NY,10312,917-716-8991,Staten Island,5,503,51,,,SI01,176,,-74.17974617139048,40.52628318608904,"(40.52628318608904, -74.17974617139048)"
2084554-2-DCA,Business,12/31/2022,Active,04/12/2019,Tobacco Retail Dealer,ASHLEY DELI GROCERY INC,,15824,110TH AVE,,JAMAICA,NY,11433,7185771006,Queens,4,412,28,4263546,4121620034,QN01,262,,-73.79212715739128,40.69201897555849,"(40.69201897555849, -73.79212715739128)"
1393506-DCA,Business,12/31/2022,Active,05/24/2011,Tobacco Retail Dealer,"ABOUNAJI DELI & GROCERY, INC.",,87,VICTORY BLVD,,STATEN ISLAND,NY,10301,917-397-9588,Staten Island,5,501,49,5000399,5000230061,SI22,11,,-74.07918904730184,40.63806614834465,"(40.63806614834465, -74.07918904730184)"
1066818-DCA,Business,12/31/2022,Active,01/22/2003,Tobacco Retail Dealer,"IRSHAD, MERCEDES",TOP NEWS AND GROCERY,6422,14TH AVE,,BROOKLYN,NY,11219,718-232-5136,Brooklyn,3,310,38,3142069,3057470048,BK30,194,,-73.99889406209965,40.62507762339311,"(40.62507762339311, -73.99889406209965)"
1465340-DCA,Business,12/31/2022,Active,05/17/2013,Tobacco Retail Dealer,QUINCY MARKET INC.,,331,NOSTRAND AVE,,BROOKLYN,NY,11216,718-857-4257,Brooklyn,3,303,36,3050609,3018030001,BK75,251,,-73.95088249570983,40.68698665792194,"(40.68698665792194, -73.95088249570983)"
1045592-DCA,Business,12/31/2022,Active,12/05/2000,Tobacco Retail Dealer,N & J STATIONERY CORP.,,764,MANHATTAN AVE,,BROOKLYN,NY,11222,718-383-9872,Brooklyn,3,301,33,3337746,3026200001,BK76,561,,-73.9524767428173,40.726750726884624,"(40.726750726884624, -73.9524767428173)"
2019786-2-DCA,Business,12/31/2022,Active,03/20/2015,Tobacco Retail Dealer,"MGM NY ASSOCIATES, INC.",,1769,BATH AVE,,BROOKLYN,NY,11214,347-312-5226,Brooklyn,3,311,43,3167708,3064020001,BK27,178,,-74.00658673097811,40.604151135521825,"(40.604151135521825, -74.00658673097811)"
2050880-2-DCA,Business,12/31/2022,Active,04/07/2017,Tobacco Retail Dealer,JOHN BAGEL & GROCERY INC,,1174,HYLAN BLVD,,STATEN ISLAND,NY,10305,718-556-3625,Staten Island,5,502,50,5093260,5032350023,SI14,64,,-74.08195447451448,40.59849526798771,"(40.59849526798771, -74.08195447451448)"
1472010-DCA,Business,12/31/2022,Active,08/23/2013,Tobacco Retail Dealer,C & T DELI-GROCERY STORE INC.,,2275,WASHINGTON AVE,,BRONX,NY,10457,718-563-7775,Bronx,2,206,15,2011339,2030380027,BX01,385,,-73.89333635859377,40.855027367376174,"(40.855027367376174, -73.89333635859377)"
1390004-DCA,Business,12/31/2022,Active,05/03/2011,Tobacco Retail Dealer,JERSEY ST. FOOD CORP.,,376,JERSEY ST,,STATEN ISLAND,NY,10301,347-322-5905,Staten Island,5,501,49,5150524,5000470086,SI22,77,,-74.08736972621561,40.63930910202972,"(40.63930910202972, -74.08736972621561)"
1466972-DCA,Business,12/31/2022,Active,06/13/2013,Tobacco Retail Dealer,WEST MOBIL ON 8TH INC.,,51,8TH AVE,,NEW YORK,NY,10014,212-989-3555,Manhattan,1,102,03,1011658,1006260040,MN23,77,,-74.00386836212078,40.73870015046343,"(40.73870015046343, -74.00386836212078)"
2026445-2-DCA,Business,12/31/2022,Active,07/31/2015,Tobacco Retail Dealer,BARTOLOME GROCERY AND DELI CORP,,4302,8TH AVE,,BROOKLYN,NY,11232,917-378-2965,Brooklyn,3,307,38,3011022,3007320040,BK34,92,,-73.99974054967126,40.64495537904649,"(40.64495537904649, -73.99974054967126)"
1412754-DCA,Business,12/31/2022,Active,11/07/2011,Tobacco Retail Dealer,288 SAMS DELI INC.,,288,AVENUE U,,BROOKLYN,NY,11223,718-266-0377,Brooklyn,3,315,47,3192646,3071230010,BK26,398,,-73.9734974819669,40.59694043073652,"(40.59694043073652, -73.9734974819669)"
2064484-2-DCA,Business,12/31/2022,Active,01/05/2018,Tobacco Retail Dealer,MYRTLE & GROVE GAS INC,,1525,MYRTLE AVE,,BROOKLYN,NY,11237,347-272-8646,Brooklyn,3,304,37,3076175,3033280008,BK77,441,,-73.91428641870384,40.69923983004887,"(40.69923983004887, -73.91428641870384)"
2028195-2-DCA,Business,12/31/2022,Active,09/09/2015,Tobacco Retail Dealer,PEOPLE'S 99 CENTS DISCOUNT PLUS CORP,,319,ROGERS AVE,,BROOKLYN,NY,11225,347-770-9022,Brooklyn,3,309,35,3034430,3013050009,BK63,321,,-73.95369194790129,40.66539193431836,"(40.66539193431836, -73.95369194790129)"
1309550-DCA,Business,12/31/2022,Active,02/18/2009,Tobacco Retail Dealer,N AND A SUPERETTE INC.,,1595,CANARSIE RD,,BROOKLYN,NY,11236,646-407-6361,Brooklyn,3,318,46,3233513,3082770009,BK50,1010,,-73.89495137677723,40.633538488227735,"(40.633538488227735, -73.89495137677723)"
2031541-2-DCA,Business,12/31/2022,Active,12/18/2015,Tobacco Retail Dealer,MUKTI 66 PETROLEUM INC,,6615,BORDEN AVE,,MASPETH,NY,11378,7187495864,Queens,4,405,30,4055332,4023940008,QN30,511,,-73.89809601618722,40.725988079720786,"(40.725988079720786, -73.89809601618722)"
1306782-DCA,Business,12/31/2022,Active,12/29/2008,Tobacco Retail Dealer,JANI USA INC.,,8906,ELIOT AVE,,REGO PARK,NY,11374,718-247-7234,Queens,4,406,29,4071941,4030750004,QN18,687,,-73.86879197336097,40.73198865113688,"(40.73198865113688, -73.86879197336097)"
1132472-DCA,Business,12/31/2022,Active,03/05/2003,Tobacco Retail Dealer,"HAMEED, ABDUL",LUCKY NEWS & COMMUNICATION,248,E 23RD ST,,NEW YORK,NY,10010,212-725-0476,Manhattan,1,106,02,1019655,1009030035,MN21,64,,-73.98204757183993,40.738358466904536,"(40.738358466904536, -73.98204757183993)"
2051284-2-DCA,Business,12/31/2022,Active,04/17/2017,Tobacco Retail Dealer,3014 RAYYAN CORP,SUNRISE GOURMET GRILL,3014,RICHMOND RD,,STATEN ISLAND,NY,10306,718-681-1158,Staten Island,5,503,50,5107629,5043020093,SI25,138,,-74.12232923427611,40.57527128294534,"(40.57527128294534, -74.12232923427611)"
2053477-2-DCA,Business,12/31/2022,Active,05/24/2017,Tobacco Retail Dealer,BARNES DELI FOOD MART CORP.,,803,MORRIS PARK AVE,,BRONX,NY,10462,3133545777,Bronx,2,211,13,2043662,2040540007,BX37,232,,-73.86240095773206,40.84600844687016,"(40.84600844687016, -73.86240095773206)"
1411588-DCA,Business,12/31/2022,Active,10/20/2011,Tobacco Retail Dealer,"N & M GROCERY DELI, CORP.",,202,SIMONSON AVE,,STATEN ISLAND,NY,10303,718-634-4457,Staten Island,5,501,49,5027230,5011940072,SI12,231,,-74.15226682277165,40.63154783043622,"(40.63154783043622, -74.15226682277165)"
1299840-DCA,Business,12/31/2022,Active,03/04/2011,Tobacco Retail Dealer,"A.B.M. SUPERETTE, INC.",,101,GUYON AVE,,STATEN ISLAND,NY,10306,718-668-3646,Staten Island,5,503,50,5058300,5042650006,SI25,13204,,-74.12760075107629,40.56476391339492,"(40.56476391339492, -74.12760075107629)"
2056450-2-DCA,Business,12/31/2022,Active,08/01/2017,Tobacco Retail Dealer,GORKHA MINI MART INC,,8542,GRAND AVE,,ELMHURST,NY,11373,7186512204,Queens,4,404,25,4065266,4028750029,QN50,479,,-73.88099924626472,40.73559479958696,"(40.73559479958696, -73.88099924626472)"
1251718-DCA,Business,12/31/2022,Active,04/09/2007,Tobacco Retail Dealer,1152 H&F CANDY STORE INC.,,1152,CONEY ISLAND AVE,,BROOKLYN,NY,11230,718-859-1098,Brooklyn,3,314,40,3170245,3064980052,BK42,460,,-73.96617819161209,40.62989799434874,"(40.62989799434874, -73.96617819161209)"
1295790-DCA,Business,12/31/2022,Active,08/14/2008,Tobacco Retail Dealer,"APEX NYC, INC",,4921,QUEENS BLVD,,WOODSIDE,NY,11377,718-457-2643,Queens,4,402,26,4030848,4013180001,QN31,25301,,-73.91556922471702,40.742805608156196,"(40.742805608156196, -73.91556922471702)"
2065621-2-DCA,Business,12/31/2022,Active,02/02/2018,Tobacco Retail Dealer,FORDHAM OF THE BRONX DELI INC,FORDHAM LUCKY 7,152,E 188TH ST,,BRONX,NY,10468,347-726-2065,Bronx,2,205,14,2013796,2031650030,BX40,23703,,-73.89844126214751,40.86165768469159,"(40.86165768469159, -73.89844126214751)"
1397278-DCA,Business,12/31/2022,Active,06/20/2011,Tobacco Retail Dealer,SKILLMAN MINI MARKET INC,,4808,SKILLMAN AVE,,SUNNYSIDE,NY,11104,718-898-1180,Queens,4,402,26,4001198,4001350029,QN31,25301,,-73.91596896857914,40.74632467138077,"(40.74632467138077, -73.91596896857914)"
2017163-2-DCA,Business,12/31/2022,Active,01/08/2015,Tobacco Retail Dealer,EXPRESS DELI AT 715 FAIRVIEW CORP,,715,FAIRVIEW AVE,,RIDGEWOOD,NY,11385,347-244-2802,Queens,4,405,30,4083510,4034890063,QN20,589,,-73.90424399111362,40.7057754379208,"(40.7057754379208, -73.90424399111362)"
1211708-DCA,Business,12/31/2022,Active,10/04/2005,Tobacco Retail Dealer,"RODRIGO, IVONNE",LINDENWOOD DELI & FOOD MARKET,15101,82ND ST,,HOWARD BEACH,NY,11414,718-835-5638,Queens,4,410,32,4246924,4114290057,QN57,6202,,-73.85253578253683,40.667359835471075,"(40.667359835471075, -73.85253578253683)"
2048132-2-DCA,Business,12/31/2022,Active,02/07/2017,Tobacco Retail Dealer,MICHAEL'S CORNER DELI INC,,6204,68TH AVE,,RIDGEWOOD,NY,11385,718-386-1988,Queens,4,405,30,4088045,4036260027,QN20,581,,-73.89523826468674,40.705539778299226,"(40.705539778299226, -73.89523826468674)"
1416426-DCA,Business,12/31/2022,Active,01/06/2012,Tobacco Retail Dealer,MO GOURMET DELI CORP.,,12602,101ST AVE,,S RICHMOND HL,NY,11419,917-445-8893,Queens,4,409,28,4451785,4094930001,QN54,156,,-73.81989450846609,40.69167602332324,"(40.69167602332324, -73.81989450846609)"
2031561-2-DCA,Business,12/31/2022,Active,12/21/2015,Tobacco Retail Dealer,ALAN'S DELI GROCERY CORP.,,1246,SHAKESPEARE AVE,,BRONX,NY,10452,7185880585,Bronx,2,204,16,2003084,2025060075,BX26,211,,-73.92312399804526,40.83835775558988,"(40.83835775558988, -73.92312399804526)"
2056797-2-DCA,Business,12/31/2022,Active,08/08/2017,Tobacco Retail Dealer,PRESTIGE GOURMET DELI CORP,,362,MARCUS GARVEY BLVD,,BROOKLYN,NY,11221,718-864-4859,Brooklyn,3,303,36,3052165,3018310050,BK35,275,,-73.93840147264758,40.684735430360895,"(40.684735430360895, -73.93840147264758)"
2022793-2-DCA,Business,12/31/2022,Active,05/14/2015,Tobacco Retail Dealer,MUKTI PETROLEUM INC,,14812,ROCKAWAY BLVD,,JAMAICA,NY,11436,718-749-5864,Queens,4,412,28,4262702,4121030025,QN76,788,,-73.78968375426655,40.67325670814297,"(40.67325670814297, -73.78968375426655)"
2057257-2-DCA,Business,12/31/2022,Active,08/21/2017,Tobacco Retail Dealer,FOOD CORNER & DELI CORP,,21301,JAMAICA AVE,,QUEENS VILLAGE,NY,11428,917-892-7397,Queens,4,413,23,4226153,4106030023,QN34,542,,-73.7445971325535,40.716209090460595,"(40.716209090460595, -73.7445971325535)"
2028873-2-DCA,Business,12/31/2022,Active,09/28/2015,Tobacco Retail Dealer,RAY'S INC I,,201,2ND AVE,,NEW YORK,NY,10003,212-529-5414,Manhattan,1,103,02,1006869,1004680037,MN22,40,,-73.98568647538423,40.73134338650365,"(40.73134338650365, -73.98568647538423)"
1093320-DCA,Business,12/31/2022,Active,09/26/2001,Tobacco Retail Dealer,LITTLE M. CORP,,118,LEXINGTON AVE,,NEW YORK,NY,10016,212-683-6425,Manhattan,1,105,02,1018199,1008830075,MN21,68,,-73.98253362299846,40.74255526662045,"(40.74255526662045, -73.98253362299846)"
1194278-DCA,Business,12/31/2022,Active,04/21/2005,Tobacco Retail Dealer,INTERNATIONAL DELI CORP.,INTERNATIONAL DELI CORP.,4017,14TH AVE,,BROOKLYN,NY,11218,718-436-0072,Brooklyn,3,312,39,3124881,3053450003,BK88,230,,-73.98481639930145,40.638580985157546,"(40.638580985157546, -73.98481639930145)"
2047186-2-DCA,Business,12/31/2022,Active,01/09/2017,Tobacco Retail Dealer,9 NEWPORT CANDY STORE INC.,,351,LEGION ST,STORE 2,BROOKLYN,NY,11212,347-881-5051,Brooklyn,3,316,42,3082003,3035820006,BK81,894,,-73.91610628750443,40.66020498795926,"(40.66020498795926, -73.91610628750443)"
1243750-DCA,Business,12/31/2022,Active,11/16/2006,Tobacco Retail Dealer,909 FULTON GROCERY & DELI CORP.,,909,FULTON ST,,BROOKLYN,NY,11238,718-638-9841,Brooklyn,3,302,35,3056602,3019770001,BK69,199,,-73.96673512728243,40.68345706653188,"(40.68345706653188, -73.96673512728243)"
1247384-DCA,Business,12/31/2022,Active,09/10/2013,Tobacco Retail Dealer,"148 DELI GROCERY, INC.",,2787,FREDERICK DOUGLASS BLVD,,NEW YORK,NY,10039,917-940-0247,Manhattan,1,110,09,1060830,1020450069,MN03,259,,-73.94045414985014,40.824853035827495,"(40.824853035827495, -73.94045414985014)"
2000806-2-DCA,Business,12/31/2022,Active,11/18/2013,Tobacco Retail Dealer,WEST 44 CANDY STORE CORP,,358,W 44TH ST,,NEW YORK,NY,10036,212-977-1622,Manhattan,1,104,03,1024978,1010340061,MN15,121,,-73.99045245624292,40.75920034318852,"(40.75920034318852, -73.99045245624292)"
